,Property Name,Price,House Type,Area in sq ft,No. of Bedrooms,No. of Bathrooms,No. of Receptions,Location,City/County,Postal Code,lat,lon
0,Queens Road,1675000,House,2716,5,5,5,Wimbledon,London,SW19 8NY,51.42477,-0.18947
1,Seward Street,650000,Flat / Apartment,814,2,2,2,Clerkenwell,London,EC1V 3PA,51.5264,-0.09785
2,Hotham Road,735000,Flat / Apartment,761,2,2,2,Putney,London,SW15 1QL,51.46507,-0.22364
3,Festing Road,1765000,House,1986,4,4,4,Putney,London,SW15 1LP,51.4691,-0.22255
4,Spencer Walk,675000,Flat / Apartment,700,2,2,2,Putney,London,SW15 1PL,51.46344,-0.22228
5,Craven Hill Gardens,420000,Flat / Apartment,403,1,1,1,,London,W2 3EA,51.51284939999999,-0.1831707805602723
6,Alfriston Road,1475000,House,1548,4,4,4,,London,SW11 6NW,51.45719,-0.15956
7,Bishops Gate,650000,New development,560,1,1,1, Fulham,London,SW6 3LF,51.4693662,-0.2104484
8,Adam & Eve Mews,2500000,House,1308,3,3,3,,London,W8 6UG,51.49942,-0.19433
9,Hornton Street,925000,Flat / Apartment,646,2,2,2,,London,W8 4NT,51.50245,-0.19441
10,Drakefield Road,2400000,House,3392,6,6,6,,London,SW17 8RR,51.43471,-0.15383
11,Cromwell Avenue,2500000,House,2974,6,6,6,Highgate,London,N6 5HQ,51.57026,-0.14179
12,Ashley Park Avenue,2795000,House,5294,5,5,5,Walton-on-Thames,Surrey,KT12 1ER,51.38216,-0.4213
13,Grove End House,725000,Flat / Apartment,778,2,2,2, St. John's Wood,London,NW8 9HP,51.52795,-0.1749
14,Abercorn Mansions,750000,Flat / Apartment,647,2,2,2,17 Abercorn Place,London,NW8 9DY,51.53265,-0.18086
15,Chester Terrace,12500000,House,4596,6,6,6,Regents Park,London,NW1 4ND,51.52908,-0.14526
16,Cambridge Park,1450000,Flat / Apartment,1702,3,3,3,,Twickenham,TW1 2PF,51.45352,-0.31223
17,Hazelwood Lane,1250000,House,3503,6,6,6, Coulsdon,Surrey,CR5 3QW,51.29775145,-0.16799371721224932
18,Elsworthy Rise,2275000,New development,1173,3,3,3,Primrose Hill,London,NW3 3DS,51.54189385,-0.16232150118115407
19,St. Anns Road,1075000,Duplex,865,2,2,2,,Holland Park,W11 4SR,51.50822,-0.21529
20,Clapham Road,500000,Flat / Apartment,597,1,1,1,,London,SW9 9BT,51.4664781,-0.12833532916999174
21,Devonshire Close,5500000,House,3016,4,4,4,Marylebone,London,W1G 7BA,51.52128,-0.14735
22,The Draycott,8950000,New development,3154,4,4,4,10 Draycott Avenue,London,SW3 3AA,51.4917,-0.16275
23,Campden Hill Gardens,1175000,Flat / Apartment,765,2,2,2,,London,W8 7AX,51.5075,-0.19956
24,College Cross,550000,Flat / Apartment,479,1,1,1,Islington,London,N1 1PT,51.54181,-0.10536
25,St Mary's Grove,1300000,House,1101,3,3,3, Islington,London,N1 2NT,51.54534,-0.098
26,Goldhurst Terrace,800000,Flat / Apartment,1177,3,3,3,South Hampstead,London,NW6 3HR,51.54181,-0.18338
27,Upper Park Road,3500000,House,2331,4,4,4,Belsize Park,London,NW3 2UP,51.54929,-0.16087
28,Ditton Grove,374950,New development,664,2,2,2,Esher,Surrey,KT10 9FN,51.37657,-0.35522
29,Roymount Court,400000,Flat / Apartment,805,2,2,2, Surbiton,Surrey,KT6 6NW,51.38869,-0.3064
30,Wetherby House,1100000,Flat / Apartment,582,2,2,2,20-21 Wetherby Gardens,London,SW5 0JP,51.49236,-0.18413
31,Fernside Road,1200000,House,1494,4,4,4,,London,SW12 8LJ,51.44602,-0.15984
32,Telford Avenue,1250000,House,1507,4,4,4,,London,SW2 4XF,51.44192,-0.12978
33,Telford Avenue,695000,Flat / Apartment,945,3,3,3,,London,SW2 4XQ,51.44145,-0.13424
34,Stile Hall Gardens,1735000,House,2118,4,4,4,Chiswick,London,W4 3BS,51.48946,-0.28457
35,Wavendon Avenue,2350000,House,2297,5,5,5,Chiswick,London,W4 4NR,51.48928,-0.26469
36,Duke Road,1200000,House,1351,4,4,4,Chiswick,London,W4 2BA,51.49151,-0.2594
37,Hobury Street,975000,Flat / Apartment,749,2,2,2,,London,SW10 0JB,51.4833,-0.17961
38,Maltings Close,850000,House,1177,3,3,3,Barnes,London,SW13 0NL,51.47260696000001,-0.25235607307166363
39,Munster Road,1599950,House,1884,4,4,4,Fulham,London,SW6 5RF,51.47526,-0.20872
40,Khyber Road,925000,Flat / Apartment,1321,2,2,2,,London,SW11 2PZ,51.46922,-0.17003
41,Coles Court,650000,Flat / Apartment,869,3,3,3,,Battersea,SW11 3DU,51.47319,-0.17268
42,Prince Of Wales Mansions,550000,Flat / Apartment,670,1,1,1,,London,SW11 4BG,51.47717,-0.14987
43,Old Battersea House,9975000,House,10100,10,10,10, Battersea,London,SW11 3LD,51.47431,-0.17618
44,Kersley Street,1850000,House,1910,5,5,5,,London,SW11 4PT,51.47279,-0.16409
45,Battersea Bridge Road,525000,New development,590,1,1,1,,London,SW11 3AU,51.4780049,-0.1693646
46,Larkhall Rise,2200000,House,2239,4,4,4,,London,SW4 6HS,51.46804,-0.13718
47,Ashley Park Avenue,3450000,House,5599,6,6,6,Walton-on-Thames,Surrey,KT12 1EU,51.37929,-0.42235
48,Carlisle Mansions,1999999,Flat / Apartment,1608,3,3,3, Victoria,London,SW1P 1EZ,51.49486,-0.14008
49,Park Close,725000,House,884,3,3,3,South Hackney,London,E9 7LF,51.53789,-0.04862
50,Century Court,1750000,Flat / Apartment,1232,2,2,2,Grove End Road,London,NW8 9LD,51.52798,-0.17401
51,Eaton Square,5250000,Flat / Apartment,2299,3,3,3,,London,SW1W 9DF,51.49576,-0.15055
52,Hornsey Town Hall,1250000,New development,1307,3,3,3,Crouch End,London,N8 9JJ,51.5787914,-0.1225527
53,"The oTTo, Hackney",490000,New development,570,1,1,1, Downs Road,Clapton,E5 8DS,51.55573575,-0.0573204850825625
54,Francis House,3350000,Penthouse,2185,3,3,3,Coleridge Gardens,London,SW10 0RP,51.48049,-0.18712
55,Wendle Square,1000000,Flat / Apartment,1228,3,3,3,Battersea,London,SW11 4SS,51.47577,-0.16554
56,Rectory Road,2350000,House,2511,4,4,4,Barnes,London,SW13 0DX,51.47304,-0.24047
57,Thames Quay,2095000,Flat / Apartment,1528,3,3,3,Chelsea Harbour,London,SW10 0UY,51.47551,-0.18022
58,Prince Edward Mansions,1250000,Flat / Apartment,811,2,2,2, Bayswater,London,W2 4WA,51.51198,-0.19341
59,Harbut Road,735000,Flat / Apartment,969,2,2,2,,London,SW11 2RE,51.46248,-0.17719
60,Chasefield Road,875000,House,1132,4,4,4,Tooting,London,SW17 8LW,51.42908,-0.16189
61,Fernwood Avenue,1250000,House,2498,6,6,6,,London,SW16 1RD,51.42894,-0.13348
62,Havilland Mews,595000,Flat / Apartment,643,2,2,2,,London,W12 8BG,51.50537,-0.23439
63,Hampermill Lane,1675000,House,5022,3,3,3,Watford,Hertfordshire,WD19 4PL,51.6338,-0.41571
64,Gatehill Road,2595000,House,4858,6,6,6,Northwood,Middlesex,HA6 3QF,51.61089,-0.41211
65,St. Davids Mews,820000,House,974,3,3,3,Morgan Street,London,E3 5AZ,51.52692,-0.03574
66,Chester Close South,830000,Flat / Apartment,850,2,2,2,Regent's Park,London,NW1 4JG,51.52815,-0.14497
67,Lady Somerset Road,500000,Flat / Apartment,458,1,1,1,Kentish Town,London,NW5 1TX,51.5546,-0.14276
68,Nicholas Way,2500000,House,5999,7,7,7,Northwood,Middlesex,HA6 2TR,51.60461,-0.43838
69,Queens Grove,7500000,House,3851,6,6,6,St John's Wood,London,NW8 6EN,51.53735,-0.17464
70,Enmore Road,749950,Flat / Apartment,1382,3,3,3,Putney,London,SW15 6LL,51.46046,-0.22497
71,The Chase,480000,Flat / Apartment,448,1,1,1,,London,SW4 0NP,51.46406,-0.14686
72,Weymouth Mews,3500000,House,1763,4,4,4,Marylebone,London,W1G 7EB,51.52008,-0.14685
73,Portland Place,2100000,Flat / Apartment,1208,3,3,3,Marylebone,London,W1B 1NX,51.52246,-0.14562
74,Ternary Place,650000,New development,1023,2,2,2, Ealing,London,W5 3HJ,51.5164921,-0.2910646
75,Weston Park,1050000,House,1693,4,4,4,Thames Ditton,Surrey,KT7 0HQ,51.38331,-0.3454
76,Lysias Road,1300000,House,1890,5,5,5,,London,SW12 8BW,51.45066,-0.15146
77,Prince Henry Road,625000,House,1348,4,4,4,Kidbrooke,London,SE7 8PP,51.47615,0.04013
78,Kirby Street,625000,Flat / Apartment,540,1,1,1,Clerkenwell,London,EC1N 8TE,51.51992,-0.10752
79,Great Peter Street,1100000,New development,791,2,2,2,Westminster,London,SW1P 2BN,51.49674,-0.13156
80,Walton Street,5950000,House,2646,4,4,4,,London,SW3 1RE,51.49755,-0.16343
81,Chatto Road,1325000,House,1375,4,4,4,,London,SW11 6LL,51.45571,-0.1604
82,Redcliffe Square,1250000,Flat / Apartment,1068,2,2,2,,London,SW10 9JY,51.48862,-0.18898
83,Elm Park Lane,2300000,House,1119,3,3,3,,London,SW3 6DB,51.48669,-0.17779
84,Fassett Square,1500000,House,1811,4,4,4,Hackney,London,E8 1DQ,51.54685,-0.06546
85,Haverhill Road,1350000,House,1603,5,5,5,,London,SW12 0HD,51.44381,-0.14158
86,Duckman Tower,799995,Flat / Apartment,942,3,3,3, Canary Wharf,London,E14 9BL,51.498448749999994,-0.019581457775756685
87,St. Stephens Crescent,795000,Flat / Apartment,495,1,1,1,,London,W2 5QT,51.51807,-0.19461
88,West Grove,525000,House,829,2,2,2,Woodford Green,Essex,IG8 7NP,51.61043,0.04161
89,Ackmar Road,2595000,House,2120,5,5,5,Fulham,London,SW6 4UP,51.47485,-0.19944
90,Romney House,820000,Flat / Apartment,631,2,2,2, Westminster,London,SW1P 3DS,51.49597,-0.12854
91,Seymour Gardens,1200000,House,2108,4,4,4,Surbiton,Surrey,KT5 8QE,51.39424,-0.29211
92,Sycamore Gardens,680000,Flat / Apartment,705,2,2,2,,London,W6 0AP,51.50028519999999,-0.2299242
93,Quarrendon Street,2300000,House,1956,3,3,3,,London,SW6 3SU,51.47273,-0.19594
94,Meredyth Road,2300000,House,2083,5,5,5,Barnes,London,SW13 0DS,51.47355,-0.24092
95,Baronsmead Road,4000000,House,3714,5,5,5,Barnes,London,SW13 9RR,51.47724705000001,-0.2400290616951399
96,Sisters Avenue,500000,Flat / Apartment,516,2,2,2,,London,SW11 5SQ,51.4633245,-0.15977199807476167
97,Warrington Gardens,1275000,Flat / Apartment,1185,3,3,3,Little Venice,London,W9 2PZ,51.5238,-0.18437
98,Pembroke Villas,4500000,House,2972,3,3,3,,London,W8 6PG,51.49569,-0.19893
99,North End Road,1750000,House,2125,4,4,4,Hampstead,London,NW11 7SY,51.56992,-0.18741
100,Heath Hurst Road,2600000,House,2350,4,4,4,Hampstead,London,NW3 2RU,51.55486,-0.16771
101,Tercelet Terrace,3450000,House,2354,4,4,4, Hampstead,London,NW3 7LW,51.55661,-0.18283
102,Kersley Street,2350000,House,2183,5,5,5,,London,SW11 4PR,51.47303,-0.16447
103,Buckingham Gate,2375000,Flat / Apartment,1218,2,2,2,St. James's,London,SW1E 6LB,51.49961,-0.14041
104,Camelot Close,1995000,House,1841,5,5,5,Wimbledon,London,SW19 7EA,51.43135,-0.20256
105,Clarendon Close,1000000,House,1154,4,4,4,South Hackney,London,E9 7BY,51.53962,-0.04847
106,Klea Avenue,1795000,House,2314,5,5,5,,London,SW4 9HG,51.45385,-0.14172
107,Manor Place Depot,687500,New development,1178,3,3,3,,London,SE17 3BD,51.48883505,-0.09744681051465434
108,Molyneux Street,2450000,House,1483,3,3,3,,London,W1H 5HW,51.51788,-0.16405
109,Gatti House,3500000,Flat / Apartment,1770,2,2,2,410 Strand,London,WC2R 0NR,51.51015,-0.12283
110,Stanmore Way,1225000,New development,2487,5,5,5,Loughton,Essex,IG10 2SA,51.66254,0.06949
111,Thornhill Crescent,850000,Flat / Apartment,773,2,2,2,Barnsbury,London,N1 1BJ,51.541304418749995,-0.11457589434174863
112,Belsize Square,780000,Flat / Apartment,654,2,2,2,,London,NW3 4HL,51.54742,-0.16902
113,Ditton Grove,399950,New development,697,2,2,2,Esher,Surrey,KT10 9FN,51.37657,-0.35522
114,Sylvan Gardens,1499950,House,2982,5,5,5,Surbiton,Surrey,KT6 6PP,51.38584,-0.31086
115,Milton Road,900000,House,1081,3,3,3,,London,SW14 8JP,51.46601610697676,-0.26571541495508544
116,Drakefield Road,2500000,House,3986,6,6,6,,London,SW17 8RR,51.43471,-0.15383
117,Chiswick High Road,575000,Flat / Apartment,773,2,2,2,Chiswick,London,W4 4AG,51.49245,-0.27255
118,Bewick Street,1250000,House,1708,5,5,5,,London,SW8 3TA,51.4705,-0.14719
119,Overstrand Mansions,1575000,Flat / Apartment,1580,3,3,3,Prince of Wales Drive,London,SW11 4EZ,51.47514,-0.15744
120,Somerset Road,4750000,House,6602,6,6,6,Wimbledon,London,SW19 5JZ,51.43396,-0.22017
121,Burleigh Place,1175000,House,1909,4,4,4,Putney,London,SW15 6ES,51.45904,-0.21933
122,Smarts Lane,695000,House,1337,3,3,3,Loughton,Essex,IG10 4BU,51.64649,0.05296
123,Freshford Street,1200000,House,1771,4,4,4,,London,SW18 3TF,51.43639,-0.18536
124,Ellerton Road,1700000,House,2374,5,5,5,Wandsworth,London,SW18 3NH,51.44209,-0.17473
125,Ladbroke Crescent & Basement,1000000,House,2125,2,2,2,131 Ladbroke Grove,London,W11 1PS,51.51595,-0.21009
126,Barts Square,1635000,New development,903,2,2,2, City Of London,London,EC1A 9DS,51.5185662,-0.1002516
127,Elizabeth Place,625000,Flat / Apartment,902,2,2,2, Esher,Surrey,KT10 8AP,51.37502215,-0.3708019503542269
128,Gleneldon Road,1850000,House,3753,6,6,6,,London,SW16 2BZ,51.42701,-0.12186
129,Windsor Court,2400000,Flat / Apartment,1736,4,4,4, Bayswater,London,W2 4SN,51.512673199999995,-0.18963322031418994
130,Southbank Place,1200000,New development,590,1,1,1, South Bank,London,SE1 7NJ,51.5028619875,-0.1157244219696957
131,The oTTo,785000,New development,1173,2,2,2, The Otto Buildings,Downs Road,E5 8DS,51.55573575,-0.0573204850825625
132,Haldane Road,1250000,House,1298,2,2,2,,London,SW6 7EU,51.482622750000004,-0.20238265
133,Chipstead Street,2300000,House,1912,3,3,3, Fulham,London,SW6 3SS,51.47307,-0.19515
134,Ruxley Crescent,1800000,New development,3877,4,4,4, Esher,Surrey,KT10 0TX,51.35796748157895,-0.3250364003713674
135,Sydney House,1300000,Flat / Apartment,1465,3,3,3,Woodstock Road,London,W4 1DP,51.4966102,-0.2554577499387754
136,Waldemar Avenue,1750000,House,1580,4,4,4,Fulham,London,SW6 5NA,51.47318,-0.21086
137,Newstead Way,1495000,House,2300,4,4,4,,London,SW19 5HR,51.43296,-0.21738
138,Crescent Road,1855000,House,2917,5,5,5,Kingston upon Thames,Surrey,KT2 7RD,51.41947,-0.28347
139,Melody Road,1625000,House,1953,4,4,4,,London,SW18 2QF,51.45654,-0.18365
140,Hasker Street,3150000,House,1449,3,3,3,,London,SW3 2LE,51.49479,-0.16529
141,Spring Terrace,5250000,House,4745,7,7,7,Richmond,Surrey,TW9 1LW,51.46055,-0.2999
142,Montague Road,6000000,House,4798,6,6,6,Richmond,Surrey,TW10 6QW,51.45527609375001,-0.29801404788273655
143,Fairfax Mews,1395000,House,1902,5,5,5,Putney,London,SW15 6FF,51.46224,-0.22641
144,Fairacres,1385000,Flat / Apartment,2056,3,3,3, Putney,London,SW15 5LX,51.46161,-0.24439
145,Clapham Common South Side,800000,Flat / Apartment,922,2,2,2,,London,SW4 9DX,51.45297,-0.14686
146,Ormond Yard,3695000,House,2316,4,4,4,St James's,London,SW1Y 6JT,51.50817,-0.13674
147,Cadogan Square,2200000,Flat / Apartment,1195,2,2,2,,London,SW1X 0JL,51.4959,-0.16169
148,Cadogan Square,1175000,Flat / Apartment,687,2,2,2,,London,SW1X 0JL,51.4959,-0.16169
149,Aubrey Walk,9500000,House,4815,5,5,5,,London,W8 7JG,51.50652,-0.20108
150,Oakwood Court,3100000,Flat / Apartment,2470,4,4,4,Holland Park,London,W14 8JS,51.49973,-0.20668
151,Barnsbury Park,5500000,House,3674,4,4,4,Islington,London,N1 1HQ,51.54285,-0.10899
152,Fieldsway House,925000,Flat / Apartment,1012,3,3,3, Highbury,London,N5 1QA,51.54941,-0.10529
154,Mare Street,260000,Studio,381,0,0,0,Hackney,London,E8 3RH,51.53922612307693,-0.05674027681557113
155,Reliance Wharf,550000,Flat / Apartment,547,1,1,1,Hertford Road,London,N1 5ET,51.53696,-0.07883
156,Gayton Road,2400000,House,2202,5,5,5,Hampstead,London,NW3 1TU,51.55633,-0.17546
157,Ram Quarter,580000,New development,460,1,1,1, Wandsworth,London,SW18 1TH,51.458549675,-0.1924279043624159
158,Grimston Road,2300000,House,2785,5,5,5,Fulham,London,SW6 3QR,51.47022,-0.20693
159,Balham Grove,1200000,House,1270,3,3,3,,London,SW12 8BE,51.44836,-0.15274
160,Fernside Road,1500000,House,1934,5,5,5,,London,SW12 8LH,51.44584,-0.15957
161,Walsingham Place,2250000,House,2605,5,5,5,,London,SW4 9RR,51.45454,-0.15361
162,Englewood Road,1500000,House,2047,4,4,4,,London,SW12 9NZ,51.45276,-0.14509
163,Streathbourne Road,2150000,House,2850,5,5,5,,London,SW17 8RA,51.43543,-0.15247
164,Rowfant Road,1595000,House,2555,6,6,6,,London,SW17 7AP,51.44135,-0.15696
165,Tantallon Road,1565000,House,2088,5,5,5,,London,SW12 8DH,51.44515,-0.15876
166,Honeybrook Road,1500000,House,2173,5,5,5,,London,SW12 0DL,51.44869,-0.14256
167,Fenn Mansions,400000,Flat / Apartment,774,2,2,2,20 Love Lane,London,SE18 6GY,51.48859,0.06565
168,New Providence Wharf,415000,Flat / Apartment,525,1,1,1, Canary Wharf,London,E14 9PW,51.506364,-0.0043751
169,Enclave Court,1395000,Penthouse,1230,2,2,2,2 Dallington Street,London,EC1V 0BH,51.52468,-0.10017
170,Fairfax Road,2800000,House,2734,6,6,6, Chiswick,London,W4 1EN,51.497861202500005,-0.2522653037633515
171,Redcliffe Gardens,1195000,Flat / Apartment,872,2,2,2,Chelsea,London,SW10 9HA,51.48513,-0.18615
172,Drayton Court,2750000,Flat / Apartment,1839,4,4,4,Drayton Gardens,London,SW10 9RH,51.48802,-0.1807
173,Lower Mall,6950000,House,5501,6,6,6,Hammersmith,London,W6 9DJ,51.48965905,-0.23142113926623056
174,Albert Bridge Road,2750000,House,2675,4,4,4,Battersea,London,SW11 4PX,51.47354,-0.16334
175,Ridgway,525000,Flat / Apartment,514,2,2,2,Wimbledon,London,SW19 4SX,51.42051,-0.22117
176,Lowndes Square,5450000,Flat / Apartment,1920,3,3,3,,London,SW1X 9HB,51.50042,-0.15796
177,Basilica Mews,2325000,New development,2392,4,4,4,,Thurleigh Road,SW12 8UF,51.45243,-0.15528
178,Devonshire Mews South,3750000,House,3256,3,3,3,Marylebone,London,W1G 6QW,51.52089,-0.14888
179,Ovington Gardens,1750000,Flat / Apartment,714,2,2,2,,London,SW3 1LS,51.49753,-0.16588
180,Cubitt Building,750000,Flat / Apartment,604,1,1,1, Chelsea,London,SW1W 8QL,51.48645,-0.14881
181,Iverna Court,3150000,Flat / Apartment,1755,4,4,4,,London,W8 6TS,51.50028,-0.19372
182,Selborne Villas,1150000,House,2357,4,4,4, Esher,Surrey,KT10 9UD,51.37203,-0.35991
183,Waleorde Road,575000,Flat / Apartment,800,2,2,2,,London,SE17 1GG,51.48872,-0.0951
184,Louisville Road,1250000,House,2475,6,6,6,,London,SW17 8RU,51.43403,-0.15439
185,Langroyd Road,1150000,House,1703,4,4,4,,London,SW17 7PL,51.43752,-0.1631
186,Dance Square,650000,Flat / Apartment,584,1,1,1, Clerkenwell,London,EC1V 3AN,51.52588,-0.09756
187,Cranbrook Road,1295000,House,1356,4,4,4,Chiswick,London,W4 2LH,51.49192,-0.25318
188,Buer Road,765000,Flat / Apartment,1362,3,3,3, Fulham,London,SW6 4LA,51.47052,-0.209
189,Lillian Road,1100000,House,1420,3,3,3,Barnes,London,SW13 9JF,51.48718748846154,-0.23639790888995973
190,Ranelagh Avenue,2350000,House,2153,4,4,4,Barnes,London,SW13 0BL,51.47169,-0.24115
191,Hillbrook Road,965000,House,1222,4,4,4,Tooting Bec,London,SW17  8SF,51.4330055,-0.1614193
192,Weller Court,1750000,Flat / Apartment,732,1,1,1, Holland Park,London,W11 3NT,51.50861,-0.20494
193,"The oTTo, Hackney",800000,New development,1119,2,2,2, Clapton,E5 8DE,E5 8DS,51.55573575,-0.0573204850825625
194,The Grange,1050000,House,2375,5,5,5, Walton-on-Thames,Surrey,KT12 3HN,51.37975,-0.41066
195,Stuart Tower,475000,Flat / Apartment,525,1,1,1,105 Maida Vale,London,W9 1UJ,51.52804,-0.18142
196,Abbey Road Cross,752500,New development,874,2,2,2,131-143 Belsize Road,London,NW6 4BR,51.53947,-0.18761
197,Ardleigh Road,1399950,House,1748,4,4,4,,De Beauvoir,N1 4FA,51.54360518,-0.0832652993809173
198,Littleworth Avenue,2795000,House,6061,7,7,7,Esher,Surrey,KT10 9PB,51.36591,-0.35548
199,Ruxley Crescent,1750000,New development,3913,4,4,4, Esher,Surrey,KT10 0TX,51.35796748157895,-0.3250364003713674
200,Clapham Common West Side,2995000,House,3406,5,5,5,Between The Commons,London,SW4 9AU,51.45655,-0.15554
201,Parkfield Avenue,1825000,House,2500,5,5,5,,London,SW14 8DY,51.463674743333335,-0.258327047115673
202,Sutherland House,550000,Flat / Apartment,609,2,2,2,137-139 Queenstown Road,London,SW8 3RJ,51.47055,-0.14972
203,Hambalt Road,1850000,House,2516,5,5,5,,London,SW4 9EL,51.4545,-0.13808
204,Ormond House,625000,Flat / Apartment,428,1,1,1, Westminster,London,SW1P 2TB,51.49597,-0.13191
205,Buckingham Gate,2290000,Flat / Apartment,1604,2,2,2,St. James's,London,SW1E 6LB,51.49961,-0.14041
206,Radnor Walk,3450000,House,1820,5,5,5,Chelsea,London,SW3 4BN,51.48766,-0.16503
207,King Henrys Road,995000,Flat / Apartment,710,2,2,2,Primrose Hill,London,NW3 3QR,51.54234,-0.15848
208,ICON7,450000,New development,538,1,1,1, Holloway,London,N7 0JN,51.55271,-0.1251
209,Montgomery Road,850000,Flat / Apartment,935,2,2,2,Chiswick,London,W4 5LZ,51.49591,-0.26877
210,Carlton Mansions,975000,Flat / Apartment,950,2,2,2, Maida Vale,London,W9 1NP,51.53185,-0.18873
211,Palace Gardens Terrace,1850000,Flat / Apartment,924,3,3,3,,London,W8 4SA,51.50611,-0.19269
212,Acer Road,940000,House,1074,3,3,3,Hackney,London,E8 3GX,51.54339,-0.07052
213,Corkran Road,1595000,House,3261,5,5,5,Surbiton,Surrey,KT6 6PN,51.38636,-0.30496
214,Grosvenor Avenue,1275000,House,1779,4,4,4,,London,SW14 8BT,51.46589120000001,-0.25797321751691504
215,Enmore Gardens,1325000,House,1541,4,4,4,,London,SW14 8RF,51.45923364404763,-0.2625586449859434
216,Oxhey Road,850000,House,1687,4,4,4,Oxhey,Hertfordshire,WD19 4QG,51.6411,-0.38846
217,Grandison Road,865000,Flat / Apartment,880,2,2,2,,London,SW11 6LN,51.45707,-0.16043
218,Lavender Sweep,650000,Flat / Apartment,859,2,2,2,,London,SW11 1EA,51.46171,-0.1643
219,Hollandgreen Place,3500000,New development,1577,2,2,2,,London,W8 6AX,51.49939,-0.20034
220,Horsell Road,1695000,House,1944,5,5,5,Highbury,London,N5 1XP,51.55059,-0.10789
221,Avon Court,399995,Flat / Apartment,472,1,1,1, Canary Wharf,London,E14 7SZ,51.5138,-0.0272
222,Castelnau,5750000,House,4682,6,6,6,Barnes,London,SW13 9EU,51.48188753333335,-0.23599094107755317
223,Lower Belgrave Street,4650000,House,2865,4,4,4,Belgravia,London,SW1W 0LN,51.4964905,-0.14755595505190938
224,Harper Lane,1650000,House,4016,8,8,8, Radlett,Hertfordshire,WD7 9HJ,51.6964,-0.30152
225,Donne Place,2800000,House,1448,3,3,3,,London,SW3 2NH,51.49409,-0.16724
226,Oakley Road,1100000,Flat / Apartment,1056,3,3,3,,London,N1 3LL,51.543,-0.08652
227,Goldhurst House,2650000,Flat / Apartment,1811,3,3,3, Parr's Way,London,W6 9AN,51.48687,-0.22622
228,Telford Avenue,1575000,House,2550,5,5,5,,London,SW2 4XL,51.44237,-0.12971
229,Mandeville Courtyard,525000,Flat / Apartment,775,1,1,1,142 Battersea Park Road,London,SW11 4NB,51.47433,-0.15735
230,Tufton Street,1650000,Flat / Apartment,1099,2,2,2,Westminster,London,SW1P 3AF,51.49559,-0.12792
231,Colosseum Terrace,850000,Flat / Apartment,726,2,2,2,Albany Street,London,NW1 4EB,51.52663,-0.14454
232,Rede Place,2700000,House,1791,3,3,3,Notting Hill,London,W2 4TU,51.51377,-0.19409
233,Tennyson Road,695000,House,795,2,2,2,Wimbledon,London,SW19 8SH,51.42392,-0.18706
234,Coleford Road,1400000,House,1799,4,4,4,London,Wandsworth,SW18 1AD,51.45887,-0.18664
235,St. Anns Terrace,2050000,House,1293,3,3,3,St John's Wood,London,NW8 6PJ,51.53452,-0.17167
236,Durward Street,615000,Flat / Apartment,972,2,2,2,Whitechapel,London,E1 5BA,51.5198437,-0.06070005000000069
237,Fairacres,1000000,Flat / Apartment,1777,3,3,3, Putney,London,SW15 5LX,51.46161,-0.24439
238,Clapham Park Road,315000,Flat / Apartment,526,1,1,1,,London,SW4 7EX,51.45985,-0.13124
239,Moore House,1850000,New development,1328,3,3,3,2 Gatliff Road,London,SW1W 8DT,51.48813,-0.15013
240,Graham Terrace,2895000,House,1289,3,3,3,,London,SW1W 8HN,51.49116,-0.15464
241,Whiston House,450000,Flat / Apartment,459,1,1,1,Bingham Court,London,N1 2DH,51.54176,-0.10039
242,Grand Avenue,500000,House,963,2,2,2,Surbiton,Surrey,KT5 9HU,51.38962,-0.27668
243,Tooting Bec Road,675000,Flat / Apartment,949,2,2,2,,London,SW17 8BW,51.43342749999999,-0.15447285
244,Dance Square,650000,Flat / Apartment,583,1,1,1,Peartree Street,Clerkenwell,EC1V 3AN,51.52588,-0.09756
245,Flanders Road,1395000,House,1068,1,1,1,Chiswick,London,W4 1NB,51.49577,-0.25047
246,The Spinney,2395000,House,4966,5,5,5, Oxshott,Surrey,KT22 0PL,51.34119,-0.35705
247,Astley House,725000,Flat / Apartment,858,3,3,3,42 Trinity Church Road,London,SW13 8EA,51.48326925,-0.23058769223207173
248,Suffolk Road,2000000,House,2525,4,4,4,Barnes,London,SW13 9PH,51.479233302287994,-0.24030507281818006
249,Shorrolds Road,625000,Flat / Apartment,664,2,2,2,,London,SW6 7TP,51.48126,-0.20106
250,Raynham Road,1350000,House,1328,3,3,3,Brackenbury Village,London,W6 0HY,51.495314090243895,-0.23339154513746987
251,Henning Street,2100000,House,2191,4,4,4,Battersea,London,SW11 3DR,51.47363,-0.17123
252,The Mount,3650000,House,8034,6,6,6,Esher,Surrey,KT10 8LQ,51.36243,-0.37522
253,Palewell Park,1850000,House,1892,4,4,4,,London,SW14 8JJ,51.46129245000001,-0.26478226841615987
254,Cranbourne Court,1500000,Flat / Apartment,1132,3,3,3,Albert Bridge Road,London,SW11 4PE,51.48047,-0.16643
255,Rothwell Street,3625000,House,2190,4,4,4,Primrose Hill,London,NW1 8YH,51.5405,-0.15688
256,New Concordia Wharf,1500000,Flat / Apartment,1274,2,2,2,Mill Street,London,SE1 2BB,51.50238365,-0.07032129665919418
257,Castelnau,525000,Flat / Apartment,630,2,2,2,Barnes,London,SW13 9ER,51.485265444117644,-0.2337535104285085
258,Banbury House,290000,Flat / Apartment,455,1,1,1,Banbury Road,London,E9 7ED,51.53895,-0.04311
259,Putney Heath Lane,1725000,House,2931,5,5,5,Putney,London,SW15 3JG,51.45205,-0.21981
260,Rydon Street,1395000,House,1510,3,3,3,Islington,London,N1 7AL,51.53718,-0.09185
261,Aragon Tower,400000,Flat / Apartment,705,2,2,2,George Beard Road,Deptford,SE8 3AL,51.49067,-0.03172
262,Cadogan Lane,3350000,House,1504,3,3,3,,London,SW1X 9DU,51.49505,-0.15622
263,Cedar Mews,1795000,House,2067,4,4,4, Putney,London,SW15 6ED,51.45815,-0.22097
264,Tormead,600000,Flat / Apartment,1160,2,2,2, Northwood,Middlesex,HA6 2BX,51.61383,-0.42994
265,Kent Avenue,1500000,House,1997,4,4,4,Ealing,London,W13 8BH,51.52342,-0.32107
266,Trefoil Road,1600000,House,2149,4,4,4,Wandsworth,London,SW18 2EQ,51.45667,-0.18225
267,Thirlmere Road,1550000,House,3620,7,7,7,,London,SW16 1QW,51.42914,-0.13605
268,The Regency,1325000,Flat / Apartment,1195,3,3,3, Westminster,London,SW1P 4HD,51.49197,-0.13347
269,Murray Mews,1395000,House,1587,3,3,3,Camden,London,NW1 9RJ,51.5444,-0.13071
270,Wilmington Square,735000,Flat / Apartment,849,2,2,2,,London,WC1X 0ER,51.52691,-0.10962
271,Lynwood Road,825000,House,2094,4,4,4,Thames Ditton,Surrey,KT7 0DJ,51.37921,-0.34019
272,Telfords Yard,1500000,Flat / Apartment,2550,3,3,3,,London,E1W 2BQ,51.50895,-0.06487
273,Landmark East Tower,679000,Flat / Apartment,832,2,2,2, Canary Wharf,London,E14 9DB,51.50201,-0.02477
274,Stanley Mansions,1500000,Flat / Apartment,1244,3,3,3,Park Walk,London,SW10 0AG,51.48581,-0.18032
275,Ducks Hill Road,1000000,New development,1501,3,3,3,Northwood,Middlesex,HA6 2SB,51.61161,-0.43897
276,Blomfield Road,4995000,House,3035,4,4,4,Little Venice,London,W9 2PF,51.52164,-0.18324
277,Wadham Road,1350000,House,1604,4,4,4,Putney,London,SW15 2LS,51.46182,-0.20956
278,Bingfield Street,625000,New development,723,2,2,2,,London,N1 0BH,51.53915,-0.11796
279,Orsman Road,600000,Flat / Apartment,660,2,2,2,Hackney,London,N1 5QL,51.53664,-0.0793
280,Cinnabar Wharf East,875000,Flat / Apartment,627,1,1,1,28 Wapping High Street,London,E1W 1NG,51.5038,-0.06502
281,Boardwalk Place,565000,Flat / Apartment,872,2,2,2,Canary Wharf,London,E14 5SH,51.50598,-0.00979
282,Carlyle Square,5850000,House,3128,5,5,5,,London,SW3 6EX,51.48683,-0.1723
283,Burlington Lodge Studios,1250000,Flat / Apartment,1201,2,2,2,48 Rigault Road,London,SW6 4JJ,51.47152,-0.20905
284,Overstrand Mansions,1800000,Flat / Apartment,1453,3,3,3,Prince of Wales Drive,London,SW11 4HA,51.47521,-0.15712
285,Eden House,1495000,New development,1781,4,4,4,New Road,London,N8 8TA,51.58141865,-0.1246237549526363
286,Fentiman Road,3100000,House,3800,8,8,8,,London,SW8 1QA,51.48169,-0.12034
287,Craven Gardens,1050000,Flat / Apartment,1831,3,3,3,Wimbledon,London,SW19 8LU,51.42509,-0.19527
288,Leopold Road,1850000,House,2503,5,5,5,Wimbledon,London,SW19 7JG,51.42968,-0.20546
289,Queensland Road,730000,Flat / Apartment,1061,3,3,3,,London,N7 7FF,51.5533862,-0.1075496
290,St. Marys Road,2900000,House,5896,7,7,7, Surbiton,Surrey,KT6 5EY,51.3824752,-0.3132686
291,Rowfant Road,650000,Flat / Apartment,736,2,2,2,,London,SW17 7AP,51.44135,-0.15696
292,Cleveland Gardens,2100000,House,2438,5,5,5,Barnes,London,SW13 0AJ,51.470727875,-0.24925702220564702
293,Elm Bank Gardens,2250000,House,2600,5,5,5,Barnes,London,SW13 0NT,51.471126172727274,-0.25330603252388006
294,Belleville Road,1695000,House,1867,5,5,5,,London,SW11 6QT,51.4561,-0.16683
295,Cottenham Park Road,1375000,House,1884,4,4,4,Wimbledon,London,SW20 0SB,51.41579,-0.23273
296,Barmouth Road,1400000,House,2138,5,5,5,Wandsworth,London,SW18 2DT,51.45234,-0.18398
297,St. Stephen's Gardens,635000,Flat / Apartment,927,2,2,2,Putney,London,SW15 2RR,51.45849,-0.20583
298,Upper St. Martin's Lane,2995000,Penthouse,1845,3,3,3,,London,WC2H 9DL,51.51288,-0.12744
299,Egerton Gardens,1000000,House,1758,4,4,4,,Ealing,W13 8HQ,51.51892,-0.31753
300,Alpine Grove,449950,Flat / Apartment,526,2,2,2,South Hackney,London,E9 7SX,51.53967,-0.04892
301,Townshend Court,425000,Flat / Apartment,474,1,1,1,Shannon Place,London,NW8 7DP,51.5348533375,-0.16603550672433948
302,High Road,650000,House,1783,3,3,3, Coulsdon,Surrey,CR5 3SD,51.28476,-0.17164
303,Parkfields,1795000,House,1902,3,3,3,Putney,London,SW15 6NH,51.46218,-0.22691
304,Fitzroy Road,1600000,Flat / Apartment,801,2,2,2,Primrose Hill,London,NW1 8TU,51.54067,-0.15367
305,The Lodge,1750000,Flat / Apartment,1002,3,3,3,Kensington Park Gardens,London,W11 3HA,51.51072,-0.20475
306,Culmstock Road,2050000,House,2275,5,5,5,,London,SW11 6LX,51.45725,-0.15718
307,Mallinson Road,1150000,Flat / Apartment,1371,3,3,3,,London,SW11 1BW,51.4581246,-0.1686852
308,South Terrace,995000,House,2446,5,5,5,,London,SW7 2TB,51.49441,-0.16996
309,Douglas Road,1900000,House,1703,5,5,5,Islington,London,N1 2LD,51.54346,-0.09491
310,Union Wharf,675000,Flat / Apartment,792,1,1,1,23 Wenlock Road,London,N1 7SJ,51.53265,-0.09533
312,ICON7,620000,New development,786,2,2,2, Holloway,London,N7 0JN,51.55271,-0.1251
313,Branch Place,650000,Flat / Apartment,747,2,2,2,De Beauvoir,London,N1 5PH,51.53702765,-0.08352625827910101
314,Hermitage Court,500000,Flat / Apartment,663,1,1,1,Knighten Street,London,E1W 1PW,51.504107399999995,-0.06390967999324866
315,Kirkstall Road,1395000,House,2006,5,5,5,,London,SW2 4HF,51.44281,-0.12897
316,St. Peters Square,2950000,House,3597,4,4,4,,London,W6 9AJ,51.49101,-0.24379
317,Carlton House,765000,New development,841,2,2,2,Carlton Drive,London,SW15 2BS,51.45926,-0.21257
318,Cleveland Gardens,1600000,House,1854,4,4,4,Barnes,London,SW13 0AH,51.47078350172414,-0.25001137426588155
319,Abercrombie Street,975000,House,1126,3,3,3,,London,SW11 2JB,51.47129,-0.16716
320,Juer Street,1699999,House,2119,5,5,5,Battersea,London,SW11 4RF,51.47824,-0.16724
321,Foxmore Street,950000,Flat / Apartment,1294,4,4,4,Battersea,London,SW11 4PU,51.47357,-0.16365
322,Southwick Mews,2150000,House,1582,3,3,3,Paddington,London,W2 1JG,51.51656,-0.17121
323,Pall Mall,2950000,Penthouse,1840,2,2,2,St James's,London,SW1Y 5JH,51.50575,-0.13699
324,Britannia Road,1500000,House,1115,3,3,3,Fulham,London,SW6 2HJ,51.47854,-0.1918
325,Tradewinds Court,650000,Flat / Apartment,882,2,2,2,Asher Way,London,E1W 2JB,51.507354875000004,-0.06538208750376984
326,Sunnyhill Road,950000,House,1700,4,4,4,,London,SW16 2UW,51.4293445,-0.12038391730009945
327,Tantallon Road,625000,Flat / Apartment,663,2,2,2,,London,SW12 8DG,51.4456,-0.15685
328,Leys Road,4825000,House,10475,7,7,7,Oxshott,Surrey,KT22 0QE,51.33754,-0.35118
329,Lillian Road,1575000,House,1983,4,4,4,Barnes,London,SW13 9JG,51.486999413157896,-0.2365637801254712
330,Christchurch Street,2550000,House,1266,3,3,3,,London,SW3 4AR,51.4862,-0.16372
331,Abercrombie Street,525000,Flat / Apartment,707,2,2,2,Battersea,London,SW11 2JB,51.47129,-0.16716
332,Rutland Road,775000,Flat / Apartment,967,2,2,2,South Hackney,London,E9 7TT,51.53751,-0.04536
333,Ruvigny Gardens,3250000,House,2210,3,3,3,Putney,London,SW15 1JR,51.46755,-0.21852
334,Hazelwood Drive,775000,Bungalow,1459,4,4,4,Pinner,Middlesex,HA5 3TT,51.60002,-0.40532
335,Roseneath Road,1775000,House,2153,5,5,5,,London,SW11 6AQ,51.4541753,-0.1537061643016039
336,Eton Avenue,3250000,House,2543,5,5,5,Hampstead,London,NW3 3HL,51.5450548970136,-0.16820019953182774
337,Drapers Court,700000,Flat / Apartment,797,2,2,2,59 Lurline Gardens,London,SW11 4DF,51.47557,-0.15302
338,Creffield Road,595000,Flat / Apartment,760,2,2,2,,London,W5 3RP,51.51199,-0.28572
339,Oakhill Road,525000,Flat / Apartment,540,1,1,1,Putney,London,SW15 2QU,51.45896,-0.20652
340,Conway Road,2450000,House,3007,6,6,6,Wimbledon,London,SW20 8PA,51.41468380714286,-0.22679940943812982
341,Henfield Road,550000,House,538,2,2,2,Wimbledon,London,SW19 3HH,51.413117735,-0.20653362198755265
342,West Side Common,3950000,House,6186,6,6,6,Wimbledon,London,SW19 4UF,51.42545,-0.22876
343,Melody Road,600000,Flat / Apartment,1024,1,1,1,,London,SW18 2QF,51.45654,-0.18365
344,Fullerton Road,1450000,House,1984,5,5,5, Wandsworth,London,SW18 1BX,51.45811,-0.18676
345,Eaton Row,5750000,House,2896,3,3,3,Belgravia,London,SW1W 0JA,51.49733,-0.14805
346,Rutland Gardens,7500000,Flat / Apartment,1793,2,2,2,,London,SW7 1BX,51.50118,-0.16645
347,Park View Court,180000,Flat / Apartment,745,2,2,2, Bow,London,E3 3AN,51.51841505,-0.02261181175018097
348,Paxton Close,699950,House,909,3,3,3,Richmond,Surrey,TW9 2AW,51.473533027403214,-0.29211068324690836
349,Hardwicke House,665000,Flat / Apartment,935,3,3,3, Richmond,Surrey,TW10 6PW,51.45721,-0.29852
350,Kersfield House,210000,Studio,328,0,0,0, Putney,London,SW15 3HJ,51.45316,-0.2181
351,Westminster Close,1550000,House,3112,5,5,5,Northwood,Middlesex,HA6 2TG,51.61074,-0.43713
352,Church Road,865000,House,1292,3,3,3,,Northwood,HA6 1AR,51.60916,-0.41527
353,Upper Grosvenor Street,18000000,House,8315,7,7,7,Mayfair,London,W1K 2NP,51.51051,-0.1528
354,Barclay Oval,1100000,House,3153,5,5,5,Woodford Green,Essex,IG8 0PP,51.61609,0.02699
355,Thornhill Crescent,2850000,House,2857,5,5,5,Islington,London,N1 1BJ,51.541304418749995,-0.11457589434174863
356,Ripplevale Grove,1150000,Flat / Apartment,1074,3,3,3,Islington,London,N1 1HT,51.54008,-0.11238
359,Ardwick Road,995000,Flat / Apartment,999,2,2,2,Fortune Green,London,NW2 2BX,51.5579,-0.19676
360,Waynflete House,575000,Penthouse,1029,3,3,3, Esher,Surrey,KT10 9QS,51.369340388888894,-0.36617352222222227
361,94 Claygate,334950,Flat / Apartment,477,1,1,1, Claygate,Surrey,KT10 0RB,51.36062,-0.34603
362,Carlton House,1000000,Penthouse,962,2,2,2,Putney,London,SW15 2FU,51.45957,-0.21238
363,Queens Road,750000,House,1510,3,3,3,Thames Ditton,Surrey,KT7 0QX,51.39594,-0.33646
364,Southborough Road,2100000,New development,3596,5,5,5,Surbiton,Surrey,KT6 6JN,51.38335,-0.30283
365,Pavilion Park,1299000,New development,1903,4,4,4, East Molesey,Surrey,KT8 9DX,51.40567,-0.35775
366,York Avenue,1900000,House,2358,4,4,4,,London,SW14 7LQ,51.459381375675676,-0.2697229375260393
367,Sutherland Gardens,1295000,House,1813,4,4,4,East Sheen,London,SW14 8DB,51.46596662272726,-0.2555305870052562
368,Turnstone House,1280000,Flat / Apartment,1169,2,2,2,Star Place,London,E1W 1AE,51.50827,-0.06951
369,St. Marys Grove,1425000,House,2028,4,4,4, Chiswick,London,W4 3LL,51.48715,-0.27456
370,Stanton Road,1795000,House,1720,4,4,4,Barnes,London,SW13 0EX,51.47311619285715,-0.24900000000000042
371,Afghan Road,1125000,House,1423,4,4,4,Battersea,London,SW11 2QD,51.46909,-0.16998
372,Old Chesterton Building,945000,Flat / Apartment,1001,2,2,2,110 Battersea Park Road,London,SW11 4LZ,51.47491,-0.15424
373,Kersley Street,3150000,House,2809,5,5,5,Battersea,London,SW11 4PR,51.47303,-0.16447
374,Grosvenor Avenue,699950,Flat / Apartment,920,2,2,2,Highbury,London,N5 2NP,51.54925,-0.08874
375,Speldhurst Road,1275000,House,1420,4,4,4,Chiswick,London,W4 1BY,51.50116,-0.25846
376,Lamont Road,3750000,House,2428,3,3,3,,London,SW10 0HX,51.48275,-0.18045
377,Mortimer Court,460000,Flat / Apartment,431,1,1,1,Abbey Road,London,NW8 9AB,51.5324679,-0.1783047576026069
378,Cavendish Avenue,6795000,House,4637,6,6,6,St John's Wood,London,NW8 9JE,51.53186,-0.17267
379,Bangalore Street,1695000,House,2096,4,4,4,Putney,London,SW15 1QD,51.46572,-0.22176
380,Hilltop,1050000,House,2254,5,5,5,Loughton,Essex,IG10 1PX,51.65313,0.06709
381,Egerton Crescent,15950000,House,4090,4,4,4,,London,SW3 2ED,51.49575,-0.16713
382,Cruikshank Street,900000,Flat / Apartment,769,2,2,2,Grays Inn,London,WC1X 9HF,51.5306,-0.11179
383,Gledhow Gardens,6950000,Flat / Apartment,3001,4,4,4,,London,SW5 0AY,51.49155,-0.18546
384,Elm Bank Mansions,1200000,Flat / Apartment,1155,3,3,3, Barnes,London,SW13 0NS,51.471643875000005,-0.25352496869342167
385,Coleraine Road,399995,Flat / Apartment,990,3,3,3,,Blackheath,SE3 7PE,51.48185,0.01262
386,Queen Anne Road,1100000,House,1607,4,4,4,South Hackney,London,E9 7AH,51.54362,-0.04451
387,Paintworks,650000,New development,646,2,2,2,Kingsland Road,London,E2 8AG,51.52998568333334,-0.0775579260988676
388,West Temple Sheen,2950000,House,3716,5,5,5,East Sheen,London,SW14 7AP,51.45934385666667,-0.27546507570497153
389,Rowditch Lane,600000,House,953,3,3,3,,London,SW11 5BX,51.47183,-0.15671
390,Holmead Road,2450000,House,2313,4,4,4, Fulham,London,SW6 2JE,51.47974,-0.18825
391,Huguenot Place,775000,Flat / Apartment,939,2,2,2,,London,SW18 2EN,51.4577377,-0.1836665
392,Addison House,625000,Flat / Apartment,652,2,2,2, St John's Wood,London,NW8 9EL,51.53043,-0.17545
393,Cumberland Terrace Mews,295000,Studio,344,0,0,0,Regent's Park,London,NW1 4HR,51.53228,-0.14579
394,St. Johns Wood Terrace,2350000,House,1519,4,4,4,St John's Wood,London,NW8 6JJ,51.53409,-0.17066
395,Wimbolt Street,1999995,House,1935,5,5,5,Shoreditch,London,E2 7BX,51.52953,-0.0671
396,Belgrave Mews North,2250000,House,1299,3,3,3,,London,SW1X 8RS,51.50019,-0.15483
397,Church Road,550000,Flat / Apartment,582,2,2,2,Richmond,Surrey,TW9 1UA,51.462265900000006,-0.2985339218042647
398,St. Augustines Road,499000,Flat / Apartment,451,1,1,1,Camden,London,NW1 9RN,51.5439923,-0.129986
399,St. John's Hill,850000,Flat / Apartment,1339,3,3,3,,London,SW11 1TH,51.459800875,-0.17838060722927707
400,Regents Drive,950000,House,1857,4,4,4,Woodford Green,Essex,IG8 8RZ,51.60413,0.06368
401,Piercing Hill,799999,House,1507,4,4,4, Epping,Essex,CM16 7JN,51.67446628069088,0.09386730295326035
402,Bourne Street,2500000,House,1340,3,3,3,,London,SW1W 8JR,51.49228,-0.15488
403,Eaton Terrace,6450000,House,3336,5,5,5,Belgravia,London,SW1W 8EZ,51.49418,-0.15587
404,Palace Court,2250000,Penthouse,1765,2,2,2,,London,W2 4HU,51.51144,-0.19192
405,Iverna Gardens,2500000,Flat / Apartment,1752,3,3,3,,London,W8 6TW,51.49959,-0.19416
406,City North East Tower,475000,New development,560,1,1,1,3 City North Place,London,N4 3FQ,51.56509,-0.10754
407,ICON7,560000,New development,657,2,2,2, Holloway,London,N7 0JN,51.55271,-0.1251
408,ICON7,610000,New development,758,2,2,2, Holloway,London,N7 0JN,51.55271,-0.1251
409,ICON7,600000,New development,758,2,2,2, Holloway,London,N7 0JN,51.55271,-0.1251
410,Octavia House,615000,Flat / Apartment,797,1,1,1,Imperial Wharf,Fulham,SW6 2FH,51.47394,-0.18305
411,Gloucester House,625000,Flat / Apartment,960,2,2,2, Sheen Road,Richmond,TW10 5BB,51.460915549999996,-0.2851068831548076
412,Entwistle Terrace,600000,Flat / Apartment,658,1,1,1,St. Peters Square,London,W6 9AW,51.49308,-0.24503
413,Rutherford House,650000,Flat / Apartment,848,2,2,2, Battersea,London,SW11 4BT,51.47223,-0.16413
414,Evelyn Road,1285000,House,1476,3,3,3,Richmond,Surrey,TW9 2TF,51.46682,-0.29897
415,Oakford Road,1795000,House,1824,5,5,5,Kentish Town,London,NW5 1AJ,51.55616,-0.13992
416,Walham Grove,825000,Flat / Apartment,843,2,2,2,Fulham,London,SW6 1QR,51.48211,-0.19773
417,Killieser Avenue,2350000,House,3180,6,6,6,,London,SW2 4NX,51.4403988,-0.12983200758620683
418,Underwood Street,2350000,Flat / Apartment,2577,3,3,3,Old Street,London,N1 7LG,51.52997,-0.09185
419,Emperors Gate,2500000,Flat / Apartment,1498,2,2,2,,London,SW7 4JA,51.49605,-0.187
420,Stapleton Road,675000,Flat / Apartment,946,3,3,3,,London,SW17 8AY,51.43414,-0.15699
421,Stokesheath Road,4650000,House,7996,6,6,6,Oxshott,Surrey,KT22 0PN,51.34399,-0.35648
422,Tile Kiln Lane,1695000,House,6356,6,6,6, Uxbridge,Middlesex,UB9 6LU,51.57681,-0.44556
423,Old Town,1050000,Flat / Apartment,976,2,2,2,,The Metal Works,SW4 0JT,51.464929850000004,-0.14087929374831965
424,Atina Court,1200000,Flat / Apartment,932,2,2,2, Belsize Park,London,NW3 4UR,51.54714,-0.16489
425,Fulham Palace Road,625000,Flat / Apartment,663,2,2,2,,London,SW6 6TA,51.47452,-0.21361
426,Cottimore Avenue,649950,House,1378,4,4,4,Walton-on-Thames,Surrey,KT12 2AE,51.38565,-0.40862
427,Voltaire Buildings,450000,Flat / Apartment,600,2,2,2,330 Garratt Lane,London,SW18 4FR,51.44323,-0.18968
428,Chipstead Street,3450000,House,3070,5,5,5,Fulham,London,SW6 3SR,51.47326,-0.19454
429,Cambridge Street,995000,Flat / Apartment,908,2,2,2,Pimlico,London,SW1V 4QE,51.48819,-0.14005
430,Arthur Road,795000,Flat / Apartment,1536,3,3,3,Wimbledon,London,SW19 7DN,51.43064,-0.20662
431,Cromwell Road,1775000,House,2336,5,5,5,Wimbledon,London,SW19 8LF,51.42579,-0.19645
432,Burwood Park Road,1295000,House,2371,5,5,5, Walton-on-Thames,Surrey,KT12 5LJ,51.37171,-0.41307
433,Forge Lane,975000,House,1201,3,3,3,Richmond,Surrey,TW10 7BF,51.44523,-0.30235
434,High Oaks Close,1100000,House,3185,5,5,5,Coulsdon,Surrey,CR5 3EZ,51.3057165,-0.1511915
435,Roskell Road,549950,Flat / Apartment,730,1,1,1,Putney,London,SW15 1DS,51.46741,-0.22256
436,Cautley Avenue,295000,Studio,277,0,0,0,,London,SW4 9HU,51.4547,-0.14288
437,Clarendon Gardens,2600000,Flat / Apartment,1779,3,3,3,Little Venice,London,W9 1AZ,51.52438,-0.18071
438,Turpins Lane,700000,House,1441,4,4,4,Woodford Green,Essex,IG8 8AZ,51.60981,0.06216
439,Pavilion Road,3950000,House,1917,1,1,1,Knightsbridge,London,SW1X 0AX,51.49561,-0.15958
440,Islington,1500000,House,1666,3,3,3,,London,N7 8LS,51.54737,-0.10728
441,Elwood Street,1350000,House,1629,4,4,4,Highbury,London,N5 1EH,51.55865,-0.10185
442,Northchurch Road,900000,Flat / Apartment,1069,2,2,2,,London,N1 3NU,51.54201,-0.08686
443,Ellington Street,2750000,House,2500,5,5,5,Islington,London,N7 8PN,51.545746893478274,-0.11072869285550337
444,Tollington Way,699500,New development,990,2,2,2, London,N7 6QX,N7 6RG,51.56173,-0.12293
445,Well Walk,799950,Flat / Apartment,770,2,2,2,Hampstead,London,NW3 1LD,51.55806,-0.17419
446,Irene Road,2895000,House,2730,5,5,5, Fulham,London,SW6 4AL,51.47488,-0.19782
447,Melbourne Mansions,799950,Flat / Apartment,940,3,3,3,Queens Club Gardens,London,W14 9SF,51.48625,-0.21144
448,Wandsworth Bridge Road,2250000,House,2949,6,6,6,Fulham,London,SW6 2TB,51.47486,-0.192
449,Trystings Close,1125000,House,2495,5,5,5, Esher,Surrey,KT10 0TF,51.3608,-0.33021
450,Lillie Square East,2020000,New development,1262,3,3,3, Earls Court,London,SW6 1UE,51.4866429,-0.19738990916608187
451,Graveney Road,975000,House,1308,4,4,4,Tooting,London,SW17 0EG,51.42927,-0.16913
452,Louisville Road,1595000,House,2790,6,6,6,,London,SW17 8RN,51.43439,-0.15432
453,Merino Court,850000,Flat / Apartment,978,3,3,3, Clerkenwell,London,EC1V 8BG,51.52779755,-0.09186731012241264
454,Westville Road,570000,Flat / Apartment,682,2,2,2,,London,W12 9BD,51.50195969183672,-0.23853444285714276
455,North Road,2400000,House,2411,4,4,4,Highgate,London,N6 4AA,51.57493565,-0.14974164039600343
456,Jubilee Court,475000,Flat / Apartment,496,1,1,1, Greenwich,London,SE10 9FJ,51.48263,-0.01494
457,Onslow Road,800000,Flat / Apartment,734,2,2,2,Richmond,Surrey,TW10 6QH,51.45657,-0.2985
458,Old Oak Avenue,950000,House,3006,5,5,5, Coulsdon,Surrey,CR5 3PG,51.30607,-0.17416
459,Roehampton High Street,1200000,House,1934,4,4,4,Putney,London,SW15 4HH,51.45133,-0.23708
460,Arthur Road,3250000,House,4370,6,6,6,Wimbledon,London,SW19 7DP,51.43192,-0.20364
461,Gibson Square,2375000,House,2153,3,3,3,Islington,London,N1 0RD,51.5381,-0.10619
462,Eamont Court,650000,Flat / Apartment,595,2,2,2,Shannon Place,London,NW8 7DN,51.53467,-0.16637
463,Disraeli Road,1295000,House,876,4,4,4,Putney,London,SW15 2DS,51.46137505,-0.21596925929991997
464,Quill Lane,1000000,House,905,2,2,2,Putney,London,SW15 1PD,51.46372,-0.21984
465,York Mansions,1885000,Flat / Apartment,1675,4,4,4,Prince of Wales Drive,London,SW11 4DL,51.47594,-0.15349
466,Thornton Hill,635000,Flat / Apartment,797,2,2,2,,London,SW19 4HS,51.41852,-0.21591
467,Montem Terrace,3495000,New development,4420,6,6,6, Wimbledon,London,SW20 8TG,51.417258399999994,-0.22847336986486344
468,Ballantine Street,1200000,House,1378,3,3,3, Wandsworth,London,SW18 1AL,51.460865049999995,-0.1867127404990448
469,Freshford Street,1200000,House,1751,4,4,4, Wandsworth,London,SW18 3TF,51.43639,-0.18536
470,Swanage Road,1600000,House,2330,5,5,5,Wandsworth,London,SW18 2DZ,51.45253,-0.18304
471,Arlesey Close,799000,House,1214,3,3,3,Putney,London,SW15 2EX,51.45622,-0.21512
472,Disraeli Road,850000,Flat / Apartment,876,2,2,2,Putney,London,SW15 2DZ,51.4607,-0.2098
473,Chestnut Court,500000,Flat / Apartment,872,2,2,2, Northwood,Middlesex,HA6 3NL,51.61274,-0.41692
474,Montagu Mews North,2500000,House,1323,3,3,3,Marylebone,London,W1H 2JR,51.5194,-0.15966
475,Albion Street,3950000,House,2547,4,4,4,Hyde Park,London,W2 2AS,51.51363,-0.1671
476,Eaton Row,2995000,House,1393,3,3,3,,London,SW1W 0JA,51.49733,-0.14805
477,Redcliffe Gardens,995000,Flat / Apartment,888,1,1,1,,London,SW10 9JJ,51.48715,-0.18764
478,Gerrard Road,2250000,House,1857,4,4,4,,London,N1 8BA,51.53388,-0.10063
479,New North Road,749950,Flat / Apartment,855,2,2,2,,London,N1 6JB,51.5309514,-0.0860938
480,ICON7,420000,New development,538,1,1,1, Holloway,London,N7 0JN,51.55271,-0.1251
481,Richmond Road,424995,Flat / Apartment,422,1,1,1,Hackney,London,E8 3AA,51.54333,-0.06656
482,The Pryors,2150000,Flat / Apartment,2074,4,4,4,East Heath Road,London,NW3 1BP,51.55968,-0.17125
483,Bishops Road,1500000,House,1645,3,3,3,Fulham,London,SW6 7AB,51.47969,-0.2032
484,Gosberton Road,1575000,House,2115,4,4,4,,London,SW12 8LQ,51.44555,-0.15945
485,Hearnville Road,1500000,House,2242,5,5,5,,London,SW12 8RR,51.44505,-0.15652
486,Discovery Dock Apartments West,550000,Flat / Apartment,600,1,1,1, Canary Wharf,London,E14 9RT,51.50152286666667,-0.019296066666666667
487,Wilmington Square,475000,Flat / Apartment,381,1,1,1,Clerkenwell,London,WC1X 0EG,51.52705,-0.11081
488,Nevill Court,595000,Flat / Apartment,791,2,2,2,Edith Terrace,London,SW10 0TL,51.48188,-0.18348
489,Ferry Road,2250000,House,2937,6,6,6,Barnes,London,SW13 9PR,51.47872,-0.2411
490,Waldemar Avenue,755000,Flat / Apartment,907,3,3,3,,London,SW6 5LN,51.47373,-0.21094
491,Battersea Church Road,900000,Flat / Apartment,1218,3,3,3,Battersea,London,SW11 3ND,51.4759094,-0.17469890712808278
492,Buckingham Gate,1990000,Flat / Apartment,1560,2,2,2,St. James's,London,SW1E 6LB,51.49961,-0.14041
493,South Park Road,1195000,House,1464,3,3,3,Wimbledon,London,SW19 8SZ,51.42059,-0.19469
494,Garratt Lane,450000,Flat / Apartment,696,2,2,2,,London,SW18 4EE,51.45002,-0.19007
495,Cadogan Terrace,325000,Flat / Apartment,339,1,1,1,Victoria Park,London,E9 5HP,51.539554675000005,-0.027150139257787937
496,Hassett Road,1150000,House,1541,4,4,4,,London,E9 5SL,51.5464,-0.0391
497,Sterling House,850000,Flat / Apartment,1456,2,2,2, Putney,London,SW15 6AR,51.46027,-0.21854
498,Boatman's Court,879000,New development,1004,2,2,2, Putney,London,SW15 1PP,51.4647,-0.21649
499,Comyn Road,1295000,House,1875,5,5,5,,London,SW11 1QB,51.46135,-0.1692
500,Hightrees House,575000,Flat / Apartment,695,2,2,2,Nightingale Lane,London,SW12 8AH,51.45331,-0.15177
501,Green Street,4100000,Flat / Apartment,1496,2,2,2,Mayfair,London,W1K 6RG,51.51304,-0.1538
502,Morton Road,1800000,House,1919,3,3,3,Islington,London,N1 3BD,51.5404,-0.0912
503,Highbury Gardens,649950,Flat / Apartment,804,2,2,2,52 Holloway Road,London,N7 8BW,51.548365,-0.1065969
504,Crediton Hill,899950,Flat / Apartment,1143,2,2,2,West Hampstead,London,NW6 1HR,51.55176,-0.18901
505,Moore Park Road,1999950,New development,1848,3,3,3,,London,SW6 4PS,51.47854,-0.19482
506,Southborough Road,1995000,New development,3510,5,5,5,Surbiton,Surrey,KT6 6JN,51.38335,-0.30283
507,Queen's Gate Gardens,1595000,Flat / Apartment,1170,2,2,2,Kensington,London,SW7 5RR,51.49586,-0.18095
508,United House,499000,New development,690,2,2,2,Mayflower Street,London,SE16 4JL,51.50009,-0.05551
509,Three Riverside,3410000,Penthouse,2852,4,4,4,Riverside Quarter,London,SW18 1PP,51.46235571666667,-0.199735850362369
510,Onslow Gardens,6750000,Flat / Apartment,2823,5,5,5,,London,SW7 3QB,51.4911,-0.17832
511,Ensor Mews,2850000,House,1724,3,3,3,,London,SW7 3BT,51.48999,-0.17834
512,Roland Gardens,1895000,Flat / Apartment,1474,3,3,3,,London,SW7 3PE,51.49022,-0.18099
513,Wardo Avenue,1650000,House,1756,4,4,4,Fulham,London,SW6 6RB,51.47621,-0.21389
514,Kinnoul Road,1225000,House,1806,4,4,4,Fulham,London,W6 8NQ,51.48533,-0.21211
515,Stanlake Road,1100000,House,2145,5,5,5,,London,W12 7HG,51.50827,-0.22798
516,Spencer Hill,1095000,House,950,2,2,2,Wimbledon,London,SW19 4PA,51.41944,-0.21448
517,Kingston Hill,2395000,House,3498,5,5,5,Kingston upon Thames,Surrey,KT2 7LN,51.423976749999994,-0.27594079618025036
518,Upton Court,550000,Flat / Apartment,904,2,2,2, Wimbledon,London,SW20 8JB,51.4182187,-0.22463261915077795
519,Earlsfield Road,1500000,House,2583,5,5,5, Wandsworth,London,SW18 3DA,51.44961,-0.18183
520,Dempster Road,750000,Flat / Apartment,911,2,2,2, Wandsworth,London,SW18 1AS,51.45912,-0.18476
521,Atheldene Road,1150000,House,1822,5,5,5, Wandsworth,London,SW18 3BN,51.44594,-0.18795
522,Townshend Court,665000,Flat / Apartment,647,2,2,2,Shannon Place,London,NW8 7DP,51.5348533375,-0.16603550672433948
523,Hamilton Terrace,1250000,Flat / Apartment,1036,2,2,2,St. John's Wood,London,NW8 9UJ,51.52856,-0.17844
524,St. Johns Road,1895000,House,2564,5,5,5,Richmond,Surrey,TW9 2PE,51.464182449999996,-0.30035679042225416
525,James House,600000,Flat / Apartment,632,2,2,2,70 Webb's Road,London,SW11 6SE,51.4554231,-0.1619778
526,Broomwood Road,700000,Flat / Apartment,946,2,2,2,,London,SW11 6JX,51.4553829,-0.1577104
527,Bolingbroke Grove,2450000,House,3020,6,6,6,Clapham,London,SW11 6ES,51.44883,-0.16351
528,Lowndes Square,1750000,Flat / Apartment,853,2,2,2,,London,SW1X 9HA,51.50079,-0.15809
529,Eagle Wharf Road,895000,New development,1033,3,3,3,Islington,London,N1 7EG,51.53431,-0.09095
530,Youngs Court,1000000,Flat / Apartment,884,1,1,1, Hampstead,London,NW3 1DD,51.55866,-0.17783
531,Moore Park Road,2300000,House,2124,4,4,4,Fulham,London,SW6 2HH,51.47891,-0.19198
532,Montpellier Road,375000,Flat / Apartment,444,1,1,1,Ealing,London,W5 2QS,51.52213,-0.30568
533,Esher Place Avenue,2150000,House,3177,5,5,5,Esher,Surrey,KT10 8PY,51.37209,-0.36932
534,Common Road,785000,New development,1474,3,3,3, Esher,Surrey,KT10 0HG,51.359098200000005,-0.3344385771117773
535,Bolander Grove,725000,New development,591,1,1,1,,London,SW6 1EY,51.48608,-0.19591
536,Sheen Road,2850000,House,5130,7,7,7,Richmond,Surrey,TW10 5AL,51.46200251875,-0.2874483819827187
537,Birds Hill Drive,5950000,New development,11716,6,6,6,Oxshott,Surrey,KT22 0SW,51.33343,-0.35586
538,Ashley Gardens,985000,Flat / Apartment,1140,2,2,2,Thirleby Road,London,SW1P 1HN,51.49588,-0.13753
539,St. Ann's Crescent,585000,Flat / Apartment,795,2,2,2,,London,SW18 2ND,51.45529,-0.18817
540,Herndon Road,995000,House,1993,5,5,5,Wandsworth,London,SW18 2DG,51.45671,-0.1871
541,Claremont Court,550000,Flat / Apartment,666,2,2,2, Shoreditch,London,E2 6DE,51.53055,-0.06296
542,Eaton Square,7300000,Flat / Apartment,2230,3,3,3,Belgravia,London,SW1W 9DH,51.49538,-0.1512
543,Elsworthy Terrace,1250000,Flat / Apartment,885,2,2,2,Primrose Hill,London,NW3 3DR,51.540740653333344,-0.16494674170594215
544,Radnor Mews,3750000,House,2396,4,4,4,Hyde Park Estate,London,W2 2SA,51.51504,-0.17187
545,Thornton Place,430000,Studio,514,1,1,1,Clapham Common North Side,London,SW4 0AB,51.46162,-0.14949
546,Thornton Place,830000,Flat / Apartment,891,2,2,2,Clapham Common North Side,London,SW4 0AB,51.46162,-0.14949
547,Pearson Square,1100000,Flat / Apartment,635,1,1,1,Fitzrovia,London,W1T 3BJ,51.51965,-0.13806
548,John Adam Street,3100000,New development,1410,3,3,3,Covent Garden,London,WC2N 6LU,51.50896,-0.12314
549,Vicarage Gate,925000,Flat / Apartment,706,1,1,1,,London,W8 4HH,51.50496,-0.19215
550,Pyrland Road,2650000,House,3319,6,6,6,Highbury,London,N5 2JA,51.55058,-0.08926
551,Elwood House,450000,Flat / Apartment,569,2,2,2,Hurlock Street,London,N5 1EU,51.55943,-0.10075
552,Dalston Square,650000,Flat / Apartment,720,2,2,2,Hackney,London,E8 3GT,51.54512,-0.07489
553,Lyncroft Mansions,799950,Flat / Apartment,956,2,2,2, West Hampstead,London,NW6 1JY,51.55378,-0.19196
554,Chelsea Vista,1250000,Penthouse,1209,2,2,2, Fulham,London,SW6 2SD,51.47373,-0.18224
555,Ashburnham Park,2995000,House,5614,6,6,6,Esher,Surrey,KT10 9TW,51.37128,-0.35863
556,Claremont Drive,2250000,House,3661,4,4,4,Esher,Surrey,KT10 9LU,51.3608,-0.36659
557,Sandown Road,2995000,House,7087,7,7,7,Esher,Surrey,KT10 9TT,51.37071,-0.35908
558,Pavilion Park,1100000,New development,1629,3,3,3, East Molesey,Surrey,KT8 9DX,51.40567,-0.35775
559,Berwyn Road,3350000,House,3770,6,6,6,Richmond,Surrey,TW10 5BP,51.46199093437501,-0.27926180866069417
560,St John Street,775000,Flat / Apartment,810,1,1,1,Clerkenwell,London,EC1V 4LD,51.530291565000006,-0.10573380354653754
561,Meon Road,800000,House,1080,3,3,3,Acton,London,W3 8AN,51.50379,-0.26786
562,Beverley Close,1850000,House,1735,4,4,4,Barnes,London,SW13 0EH,51.47222,-0.2446
563,Cambridge Road,1500000,House,1108,3,3,3,Barnes,London,SW13 0PG,51.470855871212116,-0.24844000034921207
564,Davisville Road,1695000,House,2147,5,5,5,,London,W12 9SJ,51.50262,-0.23992
565,Fladgate House,750000,Flat / Apartment,686,1,1,1, Battersea,London,SW11 8EU,51.482,-0.14639
566,York Mansions,1985000,Flat / Apartment,1492,3,3,3, Battersea,London,SW11 4BW,51.47609,-0.15291
567,Hamilton Terrace,1100000,Flat / Apartment,1125,2,2,2,St. John's Wood,London,NW8 9UJ,51.52856,-0.17844
568,Seward Street,650000,Flat / Apartment,674,2,2,2,Clerkenwell,London,EC1V 3PA,51.5264,-0.09785
569,Bloomfield Terrace,4500000,House,2145,3,3,3,Belgravia,London,SW1W 8PG,51.49006,-0.15294
570,Westbourne Park Road,4750000,New development,2552,4,4,4,Notting Hill,London,W2 5PH,51.51815,-0.19086
571,Scotland Road,995000,House,1706,5,5,5,Buckhurst Hill,Essex,IG9 5NP,51.62838,0.04107
572,Hampstead Lane,2150000,House,2172,3,3,3,Highgate,London,N6 4RT,51.57156,-0.1531
573,Corfton Road,695000,Flat / Apartment,964,2,2,2,Ealing,London,W5 2HT,51.5214831,-0.2976824
574,Barton Road,575000,Flat / Apartment,573,2,2,2,,London,W14 9HA,51.48953,-0.20971
575,Bramham Gardens,1950000,Flat / Apartment,966,2,2,2,,London,SW5 0HQ,51.49175,-0.1891
576,Stonehill Road,2000000,House,2365,4,4,4,,London,SW14 8RW,51.45862938157895,-0.26526291512426803
577,Teal Court,1100000,Flat / Apartment,816,2,2,2,Star Place,London,E1W 1AB,51.50804,-0.06922
578,Louisville Road,1550000,House,2500,5,5,5,,London,SW17 8RL,51.43589,-0.15658
579,HKR,649999,New development,569,1,1,1,211-227 Hackney Road,London,E2 8NA,51.53117475,-0.06802162510416668
580,St. Albans Avenue,1500000,House,1868,5,5,5,Chiswick,London,W4 5JR,51.499,-0.26186
581,The Lindens,725000,House,960,3,3,3,Hartington Road,London,W4 3UQ,51.47886,-0.27133
582,Shorrolds Road,785000,Flat / Apartment,739,2,2,2,,London,SW6 7TP,51.48126,-0.20106
583,Wetherell Road,400000,Flat / Apartment,491,1,1,1,South Hackney,London,E9 7DS,51.53741,-0.04271
584,Wieland Road,1395000,House,2141,4,4,4,Northwood,Middlesex,HA6 3RD,51.61169,-0.4089
585,Ravenswood Park,799950,House,1519,4,4,4,Northwood,Middlesex,HA6 3PS,51.61309,-0.41106
586,Grove Lane,975000,Bungalow,2169,3,3,3,Chigwell,Essex,IG7 6JD,51.61854,0.10499
587,Cadogan Place,4750000,House,2157,4,4,4,Belgravia,London,SW1X 9RP,51.49449,-0.15724
588,Highbury New Park,899950,Flat / Apartment,947,2,2,2,,London,N5 2ET,51.55142,-0.09216
589,Offord Road,925000,Flat / Apartment,931,2,2,2,Islington,London,N1 1EA,51.54306,-0.11448
590,Linver Road,1800000,House,1776,5,5,5,Fulham,London,SW6 3RB,51.47155,-0.20165
591,Perrymead Street,2950000,House,3144,6,6,6,Fulham,London,SW6 3SW,51.47441,-0.19445
592,Doulton House,795000,New development,825,2,2,2, Fulham,London,SW6 2FS,51.47525,-0.18415
593,Regal House,795000,Flat / Apartment,798,2,2,2, Imperial Wharf,London,SW6 2GZ,51.47269,-0.18274
594,Fitzroy House,499999,Flat / Apartment,452,1,1,1, Longfield Avenue,London,W5 2QY,51.51352,-0.30692
595,Herne Road,1450000,House,2523,4,4,4,Surbiton,Surrey,KT6 5BX,51.37872,-0.30477
596,Columbia Gardens,780000,New development,558,1,1,1,,London,SW6 1FU,51.48641,-0.19516
597,Cleveley Court,398000,New development,461,1,1,1,Ashton Reach,London,SE16 7EP,51.49153,-0.03631
598,Amelia Street,570000,Flat / Apartment,680,2,2,2,,London,SE17 3BZ,51.490230600000004,-0.09830052484261781
599,Alston Road,625000,House,1007,2,2,2,,London,SW17 0TR,51.42831,-0.17813
600,Thorne Street,1150000,House,1259,3,3,3,Barnes,London,SW13 0PT,51.469882693750016,-0.2536942656608535
601,Seward Street,655000,Flat / Apartment,703,2,2,2,Clerkenwell,London,EC1V 3PA,51.5264,-0.09785
602,Hamond Square,375000,Flat / Apartment,482,1,1,1,Hoxton,London,N1 5JQ,51.53424,-0.08079
603,Oppidans Road,2395000,House,2221,4,4,4,Primrose Hill,London,NW3 3AG,51.54149,-0.15987
604,Cairns Road,670000,Flat / Apartment,614,2,2,2,,London,SW11 1ES,51.45952,-0.16747
605,Broomwood Road,1450000,House,1792,5,5,5,,London,SW11 6JZ,51.4553309,-0.15957176490227953
606,Cleveland Street,1750000,Flat / Apartment,2203,3,3,3,Fitzrovia,London,W1T 6NG,51.52212,-0.14054
607,Kinnerton Street,2250000,House,1673,3,3,3,,London,SW1X 8EA,51.49962225,-0.15682196519811278
608,Liverpool Road,1295000,Penthouse,1424,3,3,3,,London,N1 1LA,51.539219200000005,-0.10645218902912466
609,Palewell Park,1750000,House,2435,4,4,4,,London,SW14 8JH,51.461682464999996,-0.26510770739114725
610,Gaskarth Road,700000,Flat / Apartment,707,2,2,2,,London,SW12 9NL,51.45118,-0.14597
611,Grange Road,2100000,House,2137,5,5,5,Barnes,London,SW13 9RE,51.47496,-0.24417
612,Latchmere Road,775000,House,1414,4,4,4,Battersea,London,SW11 2DT,51.47005,-0.16456
613,Killarney Road,1575000,House,2379,5,5,5,Wandsworth,London,SW18 2DX,51.45332,-0.18375
614,Grove House,650000,Flat / Apartment,1091,3,3,3,27 Frampton Park Road,London,E9 7PQ,51.54153,-0.05256
615,Holland Park Villas,8750000,New development,2755,3,3,3,6 Campden Hill,London,W8 7AD,51.50409,-0.19867
616,Portland Terrace,775000,Flat / Apartment,705,2,2,2, Richmond,Surrey,TW9 1QQ,51.4623666,-0.305831
617,Eastbury Road,975000,House,1200,3,3,3,Northwood,Middlesex,HA6 3AJ,51.61519,-0.42291
618,Hidcote Apartments,699999,New development,878,2,2,2,5 Danvers Avenue,London,SW11 1AN,51.4613,-0.17189
619,Stonehill Road,2250000,House,2344,5,5,5,,London,SW14 8RW,51.45862938157895,-0.26526291512426803
620,Palewell Park,1750000,House,2540,5,5,5,East Sheen,London,SW14 8JQ,51.46378748980026,-0.2633995257137916
621,Burnaby Crescent,1380000,House,1737,5,5,5,Chiswick,London,W4 3LH,51.48628,-0.27223
622,Chatsworth Place,1595000,House,3069,5,5,5,Oxshott,Surrey,KT22 0SS,51.3354,-0.35744
623,Castelnau,5500000,House,4666,7,7,7,Barnes,London,SW13 9EL,51.48213473999999,-0.2367488109972833
624,Denmark Avenue,3050000,House,3717,5,5,5,Wimbledon,London,SW19 4HF,51.41899,-0.21594
625,Thornton Hill,2350000,House,3594,5,5,5,Wimbledon,London,SW19 4HU,51.41809,-0.21639
626,Abernethy House,1600000,New development,1018,2,2,2,Barts Square,City Of London,EC1A 7BD,51.51886,-0.09859
627,Cadogan Gardens,6950000,Flat / Apartment,1840,3,3,3,,London,SW3 2RJ,51.49360045,-0.15924233203125082
628,Egerton Place,5250000,Flat / Apartment,2026,3,3,3,Knightsbridge,London,SW3 2EF,51.49674,-0.16674
629,Lowndes Square,3375000,Flat / Apartment,913,2,2,2,Knightsbridge,London,SW1X 9HD,51.49984,-0.15784
630,Lancaster Close,1700000,Flat / Apartment,1138,3,3,3,13-15 St. Petersburgh Place,London,W2 4JZ,51.51101,-0.1912
631,Maddox Street,4650000,Penthouse,2231,4,4,4,Mayfair,London,W1S 1NR,51.51356,-0.14178
632,New Hereford House,2100000,Flat / Apartment,1074,2,2,2, Mayfair,London,W1K 7JB,51.51349,-0.15607
633,Trevor Street,7950000,House,3247,4,4,4,,London,SW7 1DX,51.50107,-0.16503
634,Carriage House,390000,New development,506,1,1,1,2  City North Place,London,N4 3FS,51.56478,-0.10742
635,Rosaville Road,1650000,House,1684,4,4,4,,London,SW6 7BN,51.47984,-0.20651
636,Barkston Gardens,2000000,Flat / Apartment,1997,4,4,4,Earl's Court,London,SW5 0ER,51.49218,-0.19006
637,Upper Richmond Road West,1225000,House,1633,4,4,4,Richmond,Surrey,TW10 5DY,51.46422106612902,-0.2792663341387916
638,Calbourne Road,1585000,House,2055,4,4,4,,London,SW12 8LW,51.44686,-0.15759
639,Trinity Road,4250000,House,4774,7,7,7,Wandsworth,London,SW18 3SN,51.44784,-0.17224
640,Fulham Road,3950000,House,2815,4,4,4,,London,SW10 9UG,51.4832696,-0.18901641853299928
641,Queens Ride,6500000,House,5196,6,6,6,,London,SW13 0JF,51.46767667866145,-0.23358679516651815
642,1 Eastfields Avenue,985000,Flat / Apartment,1295,3,3,3,Putney,London,SW18 1FQ,51.46187525,-0.19812934523000586
643,Charlwood Place,1500000,Flat / Apartment,1275,3,3,3,Pimlico,London,SW1V 2LX,51.49125,-0.13833
644,Buckingham Gate,465000,Flat / Apartment,543,1,1,1,,London,SW1E 6PA,51.499,-0.1387
645,Effra Road,950000,House,1357,3,3,3,Wimbledon,London,SW19 8PR,51.4227,-0.19153
646,Kingholme House,699950,Flat / Apartment,786,2,2,2, Wimbledon,London,SW19 4RD,51.41884,-0.22746
647,East Hill,725000,Flat / Apartment,1134,2,2,2,Wandsworth,London,SW18 2QE,51.45759405,-0.18458945
648,Townshend Court,465000,Flat / Apartment,473,1,1,1,Shannon Place,London,NW8 7DP,51.5348533375,-0.16603550672433948
649,Mortimer Court,500000,Flat / Apartment,451,1,1,1,Abbey Road,London,NW8 9AB,51.5324679,-0.1783047576026069
650,Rutland Gate,5750000,Flat / Apartment,2524,3,3,3,Knightsbridge,London,SW7 1PJ,51.5001,-0.16901
651,Chevalier House,5450000,Flat / Apartment,1650,2,2,2,60 Brompton Road,London,SW3 1BW,51.4992752,-0.1646905
652,Queens Road,775000,House,1169,3,3,3,,Twickenham,TW1 4ET,51.44648,-0.32985
653,Church Road,550000,Flat / Apartment,676,2,2,2,Richmond,Surrey,TW10 6LN,51.4602322,-0.2969675561073455
654,High Road,1500000,House,4023,7,7,7, Coulsdon,Surrey,CR5 3QN,51.3009,-0.16669
655,Eastfields Avenue,775000,Flat / Apartment,820,2,2,2,Putney,London,SW18 1GN,51.46199,-0.19751588164762918
656,Ormonde Court,699950,Penthouse,907,2,2,2, Putney,London,SW15 6TR,51.46309,-0.22615
657,Sisters Avenue,1550000,House,2052,4,4,4,,London,SW11 5SW,51.46239,-0.15797
658,Crockerton Road,1850000,House,3247,7,7,7,,London,SW17 7HG,51.43844,-0.16551
659,Pullman Court,249999,Flat / Apartment,458,1,1,1,Streatham Hill,London,SW2 4ST,51.44324,-0.12416
660,Clifton Road,3300000,House,3448,4,4,4,Little Venice,London,W9 1SZ,51.5257579375,-0.17893905886110342
661,Pearson Square,1600000,Flat / Apartment,1402,2,2,2,Fitzrovia,London,W1T 3BJ,51.51965,-0.13806
662,Portland Chambers,1790000,Penthouse,890,2,2,2, Fitzrovia,London,W1W 6RP,51.51983,-0.14144
663,Bryanston Court,4950000,Flat / Apartment,2817,6,6,6, Marylebone,London,W1H 7HB,51.51617,-0.16122
664,Green Street,2250000,Flat / Apartment,987,2,2,2,,London,W1K 6RG,51.51304,-0.1538
665,Green Street,2650000,Flat / Apartment,1027,2,2,2,Mayfair,London,W1K 6RG,51.51304,-0.1538
666,Whitehall Lane,1000000,House,2000,4,4,4,Buckhurst Hill,Essex,IG9 5JG,51.62442297703816,0.02669128880245586
667,Baldwins Hill,1250000,House,2244,4,4,4,Loughton,Essex,IG10 1SD,51.65749,0.061
668,Bishops Gate,990000,New development,820,2,2,2,82-88 Fulham High Street,London,SW6 3LF,51.4693662,-0.2104484
669,Barts Square,1650000,New development,1259,3,3,3, Smithfield Market,London,EC1A 9DS,51.5185662,-0.1002516
670,Cubitt Building,765000,New development,618,1,1,1,10 Gatliff Road,London,SW1W 8QL,51.48645,-0.14881
671,Gainsborough Studios West,1100000,Flat / Apartment,1095,2,2,2, Shoreditch,London,N1 5EA,51.535633000000004,-0.08905580549108823
672,Middleton Road,474950,Flat / Apartment,540,1,1,1,Hackney,London,E8 4BS,51.54042,-0.0729
673,Pond Street,2450000,Penthouse,1879,3,3,3,Hampstead,London,NW3 2PS,51.553926,-0.165233
674,Clark House,650000,Flat / Apartment,668,1,1,1, Hampstead,London,NW3 7AT,51.55718,-0.19513
675,Corfton Road,499950,Flat / Apartment,603,1,1,1,,London,W5 2HT,51.5214831,-0.2976824
676,Corfton Road,449950,Flat / Apartment,539,1,1,1,,London,W5 2HT,51.5214831,-0.2976824
677,Manor Road South,1349950,House,2986,5,5,5,Esher,Surrey,KT10 0QQ,51.37023,-0.34383
678,Grove Road,1350000,House,1890,4,4,4,East Molesey,Surrey,KT8 9JS,51.40063,-0.35251
679,The Granary,375000,Flat / Apartment,961,2,2,2, Barwell Lane,Chessington,KT9 2LZ,51.35517,-0.32056
680,Milbourne Lane,625000,House,968,3,3,3,Esher,Surrey,KT10 9EA,51.36364425,-0.35862342169810835
681,Matham Road,2250000,House,4312,5,5,5,East Molesey,Surrey,KT8 0SX,51.39717,-0.35219
682,Sandown Road,2350000,House,3861,5,5,5,Esher,Surrey,KT10 9TU,51.37012,-0.35964
683,Manor Drive,900000,House,1437,3,3,3,Esher,Surrey,KT10 0AU,51.37529,-0.33534
684,Cornwall Gardens,395000,Flat / Apartment,734,2,2,2,,London,SW7 4BE,51.49657,-0.18748
685,Spruce House,1000000,Penthouse,1539,2,2,2,4 Woodland Crescent,London,SE16 6YG,51.4991,-0.04784
686,Emmanuel Road,825000,Flat / Apartment,1517,3,3,3,,London,SW12 0HF,51.4419,-0.13989
687,Brandreth Road,1600000,House,2340,5,5,5,,London,SW17 8ER,51.4383,-0.15198
688,Ziggurat Building,1250000,Flat / Apartment,1085,2,2,2, Clerkenwell,London,EC1N 8QX,51.5215833,-0.10737537498894517
689,Swanscombe Road,1100000,House,1112,3,3,3,Chiswick,London,W4 2HQ,51.4908,-0.25455
690,Hamilton Road,1200000,House,1517,4,4,4,Chiswick,London,W4 1AL,51.50184,-0.2563
691,Castelnau,4000000,House,5108,5,5,5,Barnes,London,SW13 9EX,51.47970631764705,-0.23696780852978575
692,Chester Close,1250000,House,1952,3,3,3, Barnes,London,SW13 0JE,51.46717675,-0.23192088763369773
693,Matheson Road,430000,Flat / Apartment,477,1,1,1,,London,W14 8SN,51.4935,-0.20598
694,Batoum Gardens,635000,Flat / Apartment,556,2,2,2,,London,W6 7QB,51.49929108333333,-0.22389634444444445
695,Wood Crescent,1000000,New development,960,2,2,2,,London,W12 7GS,51.51047,-0.22682
696,Lime Grove,420000,Flat / Apartment,783,2,2,2,,London,W12 8EE,51.50406,-0.22747
697,Prince of Wales Mansions,699950,Flat / Apartment,816,2,2,2,Prince of Wales Drive,London,SW11 4BG,51.47717,-0.14987
698,Primrose Mansions,585000,Flat / Apartment,552,1,1,1,Prince of Wales Drive,London,SW11 4EE,51.47566,-0.15479
699,Frere Street,800000,House,1148,3,3,3,Battersea,London,SW11 2JA,51.471149499999996,-0.1666099649794774
700,Newlands Close,375000,House,880,3,3,3, Walton-on-Thames,Surrey,KT12 4PW,51.370652,-0.38695789999999997
701,Jessica Road,1450000,House,2131,4,4,4,Wandsworth,London,SW18 2QL,51.45527,-0.1817
702,Rosehill Road,2000000,House,2518,5,5,5,Wandsworth,London,SW18 2NX,51.45557,-0.186
703,Carlton Hill,995000,Flat / Apartment,814,2,2,2,St John's Wood,London,NW8 0EN,51.53519,-0.18368
704,Albany,3250000,Flat / Apartment,917,2,2,2,Piccadilly,London,W1J 0AX,51.50978,-0.13914
705,The Green,4495000,House,4063,6,6,6,Richmond,Surrey,TW9 1PX,51.4609586,-0.3054101082982151
706,Sandy Lane,1350000,Bungalow,2912,4,4,4,Northwood,Middlesex,HA6 3ER,51.61651,-0.40628
707,Devonshire Street,875000,Flat / Apartment,570,2,2,2,Marylebone,London,W1G 6PY,51.52102,-0.15112
708,Luxborough Street,750000,Flat / Apartment,633,2,2,2,Marylebone,London,W1U 5BS,51.52176,-0.15402
709,Pelham Place,7500000,House,2693,4,4,4,South Kensington,London,SW7 2NQ,51.49331,-0.17166
710,Cottesmore Court,5950000,Penthouse,3002,4,4,4,Stanford Road,London,W8 5QL,51.49859,-0.18848
711,Hyde Park Gate,3750000,Flat / Apartment,1925,3,3,3,,London,SW7 5DT,51.50048,-0.18208
712,Holland Park Villas,7600000,New development,2238,3,3,3, Kensington,London,W8 7AF,51.504820300000006,-0.20071523133306762
713,The Rectangular Tower,565000,New development,739,2,2,2,3 City North Place,London,N4 2DH,51.56481035,-0.10639096106989437
714,Cloudesley Place,1435000,House,1341,3,3,3,Islington,London,N1 0JA,51.53552,-0.10853
715,Packington Street,1295000,New development,1321,2,2,2,,London,N1 8RA,51.5369,-0.09916
716,Hertford Road,485000,Flat / Apartment,822,2,2,2,De Beauvoir,London,N1 4SN,51.54198,-0.07729
717,River Bank,520000,Flat / Apartment,944,2,2,2,East Molesey,Surrey,KT8 9BH,51.40381,-0.34502
718,Vicarage Road,2350000,House,2281,4,4,4,,London,SW14 8RU,51.45992829444445,-0.26425702289902786
719,Fernside Road,1350000,House,1805,4,4,4,,London,SW12 8LJ,51.44602,-0.15984
720,Junction House,545000,New development,691,1,1,1, Battersea,London,SW11 2NU,51.4654608,-0.17115724999999998
721,Junction House,640000,New development,691,2,2,2, Battersea,London,SW11 2NU,51.4654608,-0.17115724999999998
722,Junction House,545000,New development,577,1,1,1, Battersea,London,SW11 2NU,51.4654608,-0.17115724999999998
723,Carlton Drive,1850000,Penthouse,2120,3,3,3,Putney,London,SW15 2BS,51.45926,-0.21257
724,Carlton Drive,1460000,New development,1399,3,3,3,Putney,London,SW15 2BS,51.45926,-0.21257
725,Rectory Road,2200000,House,2266,5,5,5,Barnes,London,SW13 0DU,51.47246,-0.24011
726,St. Dunstans Road,1325000,House,1782,4,4,4,,London,W6 8RB,51.48939925,-0.21903775761698457
727,St. George Wharf,3550000,Flat / Apartment,1862,3,3,3,Vauxhall,London,SW8 2BW,51.48507,-0.12802
728,South Park Road,1195000,House,1271,3,3,3,Wimbledon,London,SW19 8SZ,51.42059,-0.19469
729,Durrington Park Road,1995000,House,2620,5,5,5,Wimbledon,London,SW20 8NU,51.41545881363636,-0.22883757591589396
730,Rydon Mews,1585000,House,1712,4,4,4,Wimbledon,London,SW19 4RP,51.41905,-0.22799
731,Drax Avenue,2695000,House,3924,6,6,6,Wimbledon,London,SW20 0EG,51.4189229,-0.23981896378261347
732,Ridgway Place,2990000,House,3067,6,6,6,Wimbledon,London,SW19 4EW,51.42012,-0.21379
733,Hendham Road,1875000,House,2422,5,5,5,Wandsworth,London,SW17 7DH,51.43975,-0.16691
734,Eamont Court,650000,Flat / Apartment,623,2,2,2,Shannon Place,London,NW8 7DN,51.53467,-0.16637
735,Kensington Apartments,559000,Flat / Apartment,513,1,1,1, Aldgate,London,E1 6LW,51.51599,-0.07279
736,Eaton Square,3450000,Flat / Apartment,1441,2,2,2,,London,SW1W 9DH,51.49538,-0.1512
737,Eaton Place,2000000,Flat / Apartment,1520,2,2,2,Belgravia,London,SW1X 8DE,51.49676,-0.15389
738,Ormond Avenue,1650000,House,1750,4,4,4,Richmond,Surrey,TW10 6TN,51.45894,-0.30433
739,Putney Park House,425000,Flat / Apartment,592,1,1,1, Putney,London,SW15 5HJ,51.46,-0.23664
740,North Side Wandsworth Common,700000,Flat / Apartment,1040,3,3,3,,London,SW18 2SL,51.4585443,-0.17851307373009245
741,Bryanston Square,2200000,Flat / Apartment,1163,3,3,3,Marylebone,London,W1H 2DH,51.51711,-0.16009
742,Shillibeer Place,1750000,House,1224,3,3,3,Marylebone,London,W1H 4DR,51.52002,-0.16386
743,Eaton Place,1450000,Flat / Apartment,765,2,2,2,,London,SW1X 8AL,51.49681,-0.15255
744,Alwyne Road,3500000,House,2216,4,4,4,Islington,London,N1 2HW,51.54281,-0.09678
745,Liverpool Road,925000,Flat / Apartment,1032,2,2,2,,London,N1 0PY,51.53486,-0.107
746,Canonbury Park North,1850000,Flat / Apartment,1623,4,4,4,Islington,London,N1 2JU,51.54688002727273,-0.09379184700404072
747,Fitzjohn's Avenue,2295000,Flat / Apartment,2039,3,3,3,Hampstead,London,NW3 5JY,51.54768,-0.17626
748,Hampstead Hill Gardens,925000,Flat / Apartment,730,1,1,1,Hampstead,London,NW3 2PL,51.55436,-0.16914
749,Park View Road,2000000,House,3060,5,5,5,,London,W5 2JF,51.52227,-0.29572
750,Coval Road,1350000,House,1767,4,4,4,,London,SW14 7RW,51.46300782419354,-0.2739230275266755
752,Rusthall Avenue,1300000,House,1685,4,4,4,Chiswick,London,W4 1BL,51.50054,-0.2605
753,Paultons Square,5350000,House,2710,4,4,4,,London,SW3 5AP,51.48423,-0.17403
754,Melville Road,2400000,House,2425,5,5,5,Barnes,London,SW13 9RH,51.47614,-0.24284
755,Burnthwaite Road,825000,Flat / Apartment,853,3,3,3, Fulham,London,SW6 5BQ,51.47972,-0.20196
756,Lena Gardens,635000,Flat / Apartment,634,2,2,2,Hammersmith,London,W6 7PZ,51.49861043333333,-0.2238938619047619
757,Elsham Road,935000,Flat / Apartment,944,2,2,2,,London,W14 8HH,51.50059,-0.21249
758,Garfield Road,699950,House,883,2,2,2,Wimbledon,London,SW19 8RZ,51.42375,-0.18622
759,Adela Avenue,765000,House,1500,4,4,4,New Malden,Surrey,KT3 6LE,51.39884,-0.23492
760,Hersham Road,1250000,House,2502,5,5,5,Walton-on-Thames,Surrey,KT12 1LL,51.37747,-0.41017
761,Boatman's Court,725000,New development,784,2,2,2, Putney,London,SW15 1PP,51.4647,-0.21649
762,Arundel Gardens,1350000,Flat / Apartment,628,1,1,1,Notting Hill,London,W11 2LB,51.51373,-0.20672
763,Mandrake Road,1200000,House,1746,5,5,5,,London,SW17 7PX,51.43678,-0.16513
764,Bishops Gate,970000,New development,810,2,2,2,,82-88 Fulham High Street,SW6 3LF,51.4693662,-0.2104484
765,Bishops Gate,650000,New development,560,1,1,1,82-88 Fulham High Street,London,SW6 3LF,51.4693662,-0.2104484
766,Sloane Court East,750000,Flat / Apartment,599,1,1,1,Chelsea,London,SW3 4TQ,51.48977,-0.15652
767,Canalside Square,500000,New development,566,1,1,1,,London,N1 7FP,51.53459,-0.09541
768,Matthias Apartments,825000,Penthouse,1226,2,2,2,158 Northchurch Road,London,N1 3FL,51.54306,-0.09086
769,Wardo Avenue,975000,Flat / Apartment,1386,3,3,3,,London,SW6 6RA,51.47698,-0.21198
770,Montpellier Road,350000,Studio,425,0,0,0,Ealing,London,W5 2QS,51.52213,-0.30568
771,Ember Lane,925000,House,1270,4,4,4,Esher,Surrey,KT10 8ER,51.38455,-0.35416
772,Philbeach Gardens,1000000,Flat / Apartment,703,2,2,2,,London,SW5 9EY,51.49163,-0.19973
773,Collingham Place,1495000,Flat / Apartment,1122,2,2,2,,London,SW5 0QF,51.49391,-0.18995
774,Temple Sheen,2350000,House,2667,5,5,5,,London,SW14 7RP,51.46072315681818,-0.27382564102254275
775,Stapleton Road,675000,Flat / Apartment,924,2,2,2,,London,SW17 8AY,51.43414,-0.15699
776,Cecil Mansions,765000,Flat / Apartment,1025,4,4,4,Marius Road,London,SW17 7QN,51.44014,-0.15892
777,Yukon Road,799950,Flat / Apartment,1320,4,4,4,,London,SW12 9PY,51.44951,-0.14505
778,28 Narrow Street,2950000,Penthouse,3451,5,5,5,Limehouse,London,E14 8DQ,51.5096159,-0.037850139044943824
779,Myddelton Square,999950,Flat / Apartment,792,2,2,2,Finsbury,London,EC1R 1YB,51.53068,-0.10767
780,Wolseley Gardens,1200000,House,1710,4,4,4, Chiswick,London,W4 3LP,51.48762,-0.27377
781,Speldhurst Road,1250000,House,1395,4,4,4,Chiswick,London,W4 1BU,51.50113,-0.26046
782,Eastbury Grove,1495000,House,1889,4,4,4,Chiswick,London,W4 2JY,51.48845,-0.25272
783,Meredyth Road,1950000,House,2150,4,4,4,Barnes,London,SW13 0DS,51.47355,-0.24092
784,Television Centre,785000,New development,590,1,1,1,101 Wood Lane,London,W12 7FT,51.51035,-0.22626
785,Montevetro,2250000,Flat / Apartment,1641,3,3,3, Battersea,London,SW11 3YL,51.4772,-0.17501
786,Howick Place,6450000,Flat / Apartment,3578,2,2,2, Westminster,London,SW1P 1QN,51.49468,-0.13915
787,Ridgway,749950,Flat / Apartment,1059,2,2,2, Wimbledon,London,SW19 4QS,51.42085,-0.22157
788,Earlsfield Road,1675000,House,2565,4,4,4,,London,SW18 3DN,51.45098,-0.18137
789,Twilley Street,950000,House,1360,4,4,4,,London,SW18 4NU,51.4501,-0.19158
790,The Glass Building,1975000,Penthouse,2458,2,2,2,226 Arlington Road,London,NW1 7HY,51.54031,-0.14509
791,Radnor Walk,3550000,House,1986,5,5,5,Chelsea,London,SW3 4BP,51.4883729,-0.16520920449993065
792,Du Cane Court,350000,Flat / Apartment,539,1,1,1,Balham High Road,London,SW17 7JA,51.44118,-0.15574
793,Basilica Mews,2375000,New development,2540,5,5,5,,Thurleigh Road,SW12 8UF,51.45243,-0.15528
794,Basilica Mews,2325000,New development,2466,5,5,5,,Thurleigh Road,SW12 8UF,51.45243,-0.15528
795,Pearson Square,4600000,New development,1961,3,3,3,Fitzrovia,London,W1T 3BF,51.51898,-0.13833
796,The Chase,700000,House,1174,4,4,4,Loughton,Essex,IG10 4RE,51.63502,0.04399
797,Piercing Hill,1350000,House,2312,4,4,4, Epping,Essex,CM16 7JW,51.67745945,0.0916401960361346
798,Bramah House,1325000,New development,824,2,2,2,9 Gatliff Road,London,SW1W 8DP,51.4872,-0.14856
799,Tedworth Square,1850000,Flat / Apartment,981,2,2,2,,London,SW3 4DU,51.48755,-0.1623
800,Upper Park Road,5250000,House,3782,8,8,8,Belsize Park,London,NW3 2UP,51.54929,-0.16087
801,Ascott Avenue,1000000,House,1549,4,4,4,Ealing,London,W5 5QB,51.50575980263159,-0.2991887685021842
802,Carleton Close,1275000,House,2344,5,5,5,Esher,Surrey,KT10 8EE,51.38322,-0.35572
803,Redcliffe Square,2000000,Flat / Apartment,1072,2,2,2,,London,SW10 9JY,51.48862,-0.18898
804,Palmers Road,1200000,House,1760,4,4,4,East Sheen,London,SW14 7NB,51.467230416666666,-0.269097751541648
805,Gaskarth Road,1175000,House,1668,4,4,4,,London,SW12 9NL,51.45118,-0.14597
806,Kirkstall Road,1300000,House,2177,4,4,4,,London,SW2 4HD,51.44296,-0.12741
807,Woodfield Lane,3500000,House,4213,7,7,7,,London,SW16 1LF,51.43512,-0.13615
808,Mayford Road,800000,Flat / Apartment,1035,2,2,2,,London,SW12 8SN,51.44739,-0.15895
809,Merton Avenue,1200000,House,1615,4,4,4,Chiswick,London,W4 1TA,51.4942,-0.24919
810,The Orchard,3295000,House,3230,5,5,5, Chiswick,London,W4 1JZ,51.49617,-0.25823
811,Ravensmede Way,425000,Flat / Apartment,548,2,2,2,,London,W4 1TF,51.49452,-0.24736
812,Carlton House,1215000,New development,1091,3,3,3, Putney,London,SW15 2BS,51.45926,-0.21257
813,Slaidburn Street,1850000,House,1341,3,3,3,,London,SW10 0JW,51.48238,-0.18168
814,Rocks Lane,2275000,House,2652,5,5,5,Barnes,London,SW13 0DB,51.474182877419345,-0.2387350172382561
815,Hampshire Court,400000,Flat / Apartment,601,2,2,2, Barnes,London,SW13 0ES,51.47226455,-0.24911585
816,Valiant House,800000,Flat / Apartment,1143,3,3,3, Battersea,London,SW11 3LX,51.4756,-0.17594
817,Queenstown Road,700000,Flat / Apartment,940,2,2,2,Battersea,London,SW8 3QD,51.47276,-0.14874
818,Aslett Street,750000,Duplex,1522,4,4,4,,London,SW18 2BQ,51.45134,-0.18704
819,City Road,500000,Flat / Apartment,561,1,1,1,Clerkenwell,London,EC1V 1AG,51.52994,-0.09557
820,Cadogan Lane,3975000,House,1726,3,3,3,Knightsbridge,London,SW1X 9DP,51.497,-0.15669
821,Strawberry Vale,1999995,House,2537,5,5,5,,Twickenham,TW1 4RX,51.43776,-0.33109
822,Seaton Close,1099000,House,1554,4,4,4, Putney,London,SW15 3TJ,51.44688,-0.23242
823,Roseland House,539950,Flat / Apartment,627,2,2,2,Weimar Street,London,SW15 1SY,51.46509,-0.21587
824,Woodhouse Eaves,1050000,House,1677,4,4,4,Northwood,Middlesex,HA6 3NF,51.61663,-0.40983
825,Gayville Road,850000,Flat / Apartment,901,2,2,2,,London,SW11 6JW,51.45268,-0.1615
826,Edgeley Road,599950,Flat / Apartment,699,2,2,2,,London,SW4 6HB,51.46758,-0.13614
827,Marmion Road,695000,Flat / Apartment,987,2,2,2,,London,SW11 5PA,51.46333,-0.15363
828,Carlton Mansions,950000,Flat / Apartment,922,3,3,3, Maida Vale,London,W9 1NS,51.53109,-0.18791
829,Liverpool Road,1999995,House,2073,4,4,4,,London,N7 8PR,51.546335575,-0.10875200298463406
830,Matilda Street,365000,Flat / Apartment,520,1,1,1,,London,N1 1BG,51.53906,-0.11493
831,Kidderpore Avenue,1200000,Flat / Apartment,1218,3,3,3,Hampstead,London,NW3 7SF,51.55713,-0.19348
832,Palace Road,2950000,House,4389,6,6,6,East Molesey,Surrey,KT8 9DW,51.40406,-0.35164
833,Sketch Apartments,380000,Flat / Apartment,550,1,1,1,42 White Horse Lane,London,E1 3FY,51.5199,-0.04349
834,Alleyn Park,1875000,House,3435,5,5,5,,London,SE21 8AA,51.43938,-0.08879
835,The Chase,5100000,House,4459,7,7,7,,London,SW4 0NH,51.46421,-0.14613
836,Andersens Wharf,490000,Flat / Apartment,771,2,2,2, Canary Wharf,London,E14 7DX,51.51362,-0.02938
837,Lonsdale Road,2750000,House,2612,6,6,6,Barnes,London,SW13 9ED,51.485789759090906,-0.23434103564173334
838,Townshend Court,450000,Flat / Apartment,460,1,1,1, St John's Wood,London,NW8 7DP,51.5348533375,-0.16603550672433948
839,Weldin Mews,825000,House,1224,3,3,3,Putney,London,SW18 1FT,51.45638,-0.20039
840,Hotham Road,1695000,House,2205,4,4,4,Putney,London,SW15 1QJ,51.46548,-0.2237
841,Carlton Drive,425000,Flat / Apartment,548,1,1,1,Putney,London,SW15 2BD,51.4574761,-0.2131898053555075
842,Gloucester Avenue,1250000,Flat / Apartment,896,2,2,2,Primrose Hill,London,NW1 8JD,51.5400274,-0.1502349
843,Northumberland Place,3750000,House,2239,4,4,4,,London,W2 5BS,51.51648,-0.19607
845,City Road,675000,Flat / Apartment,891,2,2,2,,London,EC1V 1LA,51.53038,-0.09913
846,Forest Road,465000,Flat / Apartment,518,1,1,1,Hackney,London,E8 3BL,51.54385,-0.0702
847,Howitt Road,1350000,Flat / Apartment,1023,2,2,2,Belsize Park,London,NW3 4LJ,51.54859,-0.16616
848,Ashington Road,2500000,House,2458,5,5,5,Fulham,London,SW6 3QJ,51.47151,-0.20377
849,Winterdown Road,675000,House,915,2,2,2,Esher,Surrey,KT10 8LP,51.36258,-0.38489
850,Milton Road,945000,House,1112,3,3,3,East Sheen,London,SW14 8JP,51.46601610697676,-0.26571541495508544
851,Dundee Wharf,725000,Flat / Apartment,861,2,2,2, Limehouse,London,E14 8AY,51.508,-0.03096
852,Wharfside Point South,325000,Flat / Apartment,469,1,1,1, Canary Wharf,London,E14 9EX,51.50822,-0.00921
853,Myddelton Square,800000,Flat / Apartment,742,2,2,2,Finsbury,London,EC1R 1YE,51.5296,-0.10788
854,Cloth Court,595000,New development,476,1,1,1,Farringdon,London,EC1A 7LS,51.51911,-0.10019
855,Edensor Gardens,425000,Flat / Apartment,740,2,2,2,Grove Park,London,W4 2QY,51.4822,-0.25408
856,Lillian Road,1250000,House,1380,3,3,3,Barnes,London,SW13 9JF,51.48718748846154,-0.23639790888995973
857,Glebe Road,2100000,House,1959,5,5,5,Barnes,London,SW13 0DR,51.47361,-0.2425
858,Knowsley Road,875000,House,869,2,2,2,Battersea,London,SW11 5BL,51.46997,-0.16249
859,Poyntz Road,1095000,House,1238,3,3,3,Battersea,London,SW11 5BH,51.46936,-0.16292
860,Battersea Church Road,1495000,Penthouse,1680,4,4,4,Battersea,London,SW11 3NA,51.47654655,-0.17545069333333368
861,Hove Court,895000,Flat / Apartment,1221,3,3,3, Wimbledon,London,SW19 4AG,51.4229,-0.21275
862,Birdhurst Road,650000,Flat / Apartment,1087,3,3,3,,London,SW18 1AR,51.45943,-0.18394
863,Eaton Place,3500000,Flat / Apartment,1548,3,3,3,Belgravia,London,SW1X 8AD,51.49797,-0.15086
864,Chevalier House,4750000,Flat / Apartment,1559,2,2,2, Knightsbridge,London,SW3 1BW,51.4992752,-0.1646905
865,Macaulay Court,550000,Flat / Apartment,690,2,2,2,Macaulay Road,London,SW4 0QU,51.46571,-0.14622
866,The Green,525000,Flat / Apartment,1299,3,3,3, Buckhurst Hill,Essex,IG9 5NQ,51.62745,0.03493
867,Chelsea Waterfront,4035000,New development,2174,4,4,4, Chelsea,London,SW10 0QH,51.47922,-0.17946
868,Melbourne House,1150000,Flat / Apartment,933,2,2,2,50 Kensington Place,London,W8 7PW,51.50687,-0.19869
869,Peel Street,2350000,House,1327,2,2,2,,London,W8 7PA,51.5069,-0.19621
870,Parkhill,2100000,Flat / Apartment,2810,3,3,3, Esher,Surrey,KT10 9NP,51.368441700000005,-0.3615762999999975
871,Greenways,1000000,House,2590,4,4,4,Esher,Surrey,KT10 0QD,51.37303,-0.3419
872,Tower Bridge Road,780000,Penthouse,1010,2,2,2,,London,SE1 2AW,51.50153,-0.07815
873,Becmead Avenue,1595000,House,3260,6,6,6,,London,SW16 1UQ,51.43174,-0.13224
874,Pavilion Square,1000000,House,2456,3,3,3,,London,SW17 7DN,51.43688,-0.16684
875,Blandfield Road,850000,House,953,2,2,2,,London,SW12 8BQ,51.4501,-0.15426
876,Beechmore Road,625000,Flat / Apartment,967,1,1,1,,London,SW11 4ET,51.47448,-0.16006
877,Trott Street,1300000,House,1457,4,4,4,Battersea,London,SW11 3DS,51.47405325,-0.17261564204545415
878,Maunsel Street,2950000,House,2349,5,5,5,Westminster,London,SW1P 2QN,51.49451,-0.13332
879,South Park Road,995000,House,1184,3,3,3,Wimbledon,London,SW19 8SZ,51.42059,-0.19469
880,Wycombe Place,1150000,House,1705,3,3,3,,London,SW18 2LT,51.4539,-0.18629
881,Battersea Reach,700000,Flat / Apartment,814,2,2,2, Battersea,London,SW18 1TA,51.4649419,-0.183417
882,Cicada Road,575000,Flat / Apartment,619,2,2,2,,London,SW18 2NW,51.45617,-0.18187
883,Southborough Road,1675000,House,1749,4,4,4,South Hackney,London,E9 7EE,51.53893,-0.04435
884,Trevor Square,4500000,Flat / Apartment,1607,2,2,2,,London,SW7 1EA,51.49991,-0.16523
885,Eaton Square,820000,Flat / Apartment,992,1,1,1,,London,SW1W 9BD,51.49487,-0.15194
886,Northumberland Place,2950000,House,2400,3,3,3,Richmond,Surrey,TW10 6TS,51.45733115416667,-0.30524370416682695
887,Felsham Road,635000,Flat / Apartment,774,2,2,2,Putney,London,SW15 1BB,51.46681,-0.22356
888,Langside Avenue,1995000,House,3256,5,5,5,Putney,London,SW15 5QT,51.46337,-0.24241
889,Liverpool Road,1895000,House,1868,3,3,3,Islington,London,N1 0RE,51.53814,-0.10665
890,Victoria Avenue,1495000,House,2566,5,5,5,Surbiton,Surrey,KT6 5DL,51.39053,-0.31031
891,Arnison Road,2250000,House,3364,5,5,5,East Molesey,Surrey,KT8 9JJ,51.4009,-0.35046
892,Upper Richmond Road West,1250000,House,2032,6,6,6,Richmond,Surrey,TW10 5DY,51.46422106612902,-0.2792663341387916
893,Duckman Tower,825000,Flat / Apartment,1026,3,3,3, Canary Wharf,London,E14 9BL,51.498448749999994,-0.019581457775756685
894,Clerkenwell Road,875000,Flat / Apartment,767,2,2,2,Clerkenwell,London,EC1M 5PY,51.52259,-0.09891
895,Meredyth Road,2175000,House,2108,5,5,5,Barnes,London,SW13 0DS,51.47355,-0.24092
896,Rectory Road,2250000,House,2332,5,5,5,Barnes,London,SW13 0DT,51.47276,-0.23989
897,Alexandra Avenue,975000,Flat / Apartment,1100,2,2,2,Battersea,London,SW11 4DZ,51.47493,-0.15578
898,Edna Street,1735000,House,2144,4,4,4,Battersea,London,SW11 3DP,51.4738,-0.17048
899,Kingholme House,1375000,House,1335,3,3,3, Wimbledon,London,SW19 4RD,51.41884,-0.22746
900,Tonsley Road,1295000,House,1811,4,4,4,,London,SW18 1BG,51.45814,-0.1886
901,Addison House,875000,Flat / Apartment,693,2,2,2,Grove End Road,London,NW8 9EL,51.53043,-0.17545
902,Jade Terrace,1950000,House,1873,5,5,5, South Hampstead,London,NW6 4EQ,51.54426715,-0.17936028385876196
903,Edge Apartments,995000,Flat / Apartment,1243,2,2,2, Twickenham,Middlesex,TW1 4RX,51.43776,-0.33109
904,Church Road,3450000,House,3825,5,5,5, Richmond,Surrey,TW10 5HG,51.43076,-0.29948
905,Elsworthy Terrace,1295000,Flat / Apartment,1366,2,2,2,,London,NW3 3DR,51.540740653333344,-0.16494674170594215
906,Stanmore Hill,2500000,House,4222,6,6,6,Stanmore,Middlesex,HA7 3BY,51.62361,-0.31894
907,Bickenhall Mansions,2150000,Flat / Apartment,1672,3,3,3, Marylebone,London,W1U 6BT,51.52148,-0.1584
908,Goodwood Court,800000,Flat / Apartment,548,2,2,2, Marylebone,London,W1W 5DZ,51.52209,-0.14475
909,Portland Chambers,1750000,Flat / Apartment,883,2,2,2, Fitzrovia,London,W1W 6RP,51.51983,-0.14144
910,Monkhams Avenue,1250000,House,1901,4,4,4,Woodford Green,Essex,IG8 0HB,51.60872,0.03243
911,Bowden House,1178000,New development,847,2,2,2, Battersea,London,SW11 4FA,51.478267450000004,-0.14635437428682196
913,Aubrey Road,7950000,House,3443,5,5,5,,London,W8 7JJ,51.50675,-0.20306
914,Wynnstay Gardens,2150000,Flat / Apartment,1806,4,4,4,,London,W8 6UP,51.499442349999995,-0.1959808783987363
915,Battledean Road,1895000,House,2132,5,5,5,Highbury,London,N5 1UZ,51.55163,-0.10322
916,Galleria,1200000,Flat / Apartment,1355,2,2,2,29 Laycock Street,London,N1 1UR,51.54454,-0.10565
917,Independent Place,725000,House,804,1,1,1,Hackney,London,E8 2HE,51.55165,-0.07104
918,Wildwood Grove,1100000,House,1069,2,2,2,Hampstead,London,NW3 7HU,51.56831,-0.18264
919,Gifford Gardens,1000000,New development,2258,4,4,4,,London,W7 3AS,51.52273,-0.34339
920,Ternary Place,600000,New development,870,1,1,1, Ealing,London,W5 3HJ,51.5164921,-0.2910646
921,Gloucester Road,695000,Flat / Apartment,537,1,1,1,,London,SW7 4AU,51.49638,-0.1838
922,Gosberton Road,1450000,House,1921,4,4,4,,London,SW12 8LF,51.44611,-0.15729
923,Foxbourne Road,699950,Flat / Apartment,902,2,2,2,,London,SW17 8EN,51.43924,-0.15381
924,Ravenslea Road,1295000,House,1674,4,4,4,Balham,London,SW12 8RT,51.44451,-0.15862
925,Cranley Gardens,2600000,Flat / Apartment,1500,3,3,3,,London,SW7 3DD,51.49008,-0.17969
926,Crooked Billet,600000,House,570,2,2,2,Wimbledon,London,SW19 4RQ,51.42151040000001,-0.22758483923513273
927,Alverstone Avenue,895000,House,900,3,3,3,Wimbledon,London,SW19 8BD,51.43864,-0.20045
928,Leopold Road,1160000,Penthouse,1112,2,2,2,Wimbledon,London,SW19 7JQ,51.43002,-0.2044
929,Bloomsbury Place,500000,Flat / Apartment,622,2,2,2,,London,SW18 2JB,51.4578,-0.18602
930,Chatham Place,625000,Flat / Apartment,797,2,2,2,,London,E9 6FJ,51.54584,-0.05112
931,Mortimer Court,450000,Flat / Apartment,377,1,1,1,Abbey Road,London,NW8 9AD,51.53252,-0.17831
932,Lebanon Park,2750000,House,2999,7,7,7,Twickenham,Middlesex,TW1 3DG,51.4484,-0.32108
933,St. Quintin Avenue,899950,Flat / Apartment,1115,3,3,3,,London,W10 6PB,51.51989,-0.22464
934,Pembridge Square,1250000,Flat / Apartment,649,1,1,1,,London,W2 4EH,51.511537000000004,-0.19347754480325285
935,Holland Park Avenue,1650000,Flat / Apartment,1055,2,2,2,,London,W11 4UE,51.5065,-0.20902
936,Stanley Crescent,3450000,Penthouse,1575,2,2,2,Notting Hill,London,W11 2NA,51.51249,-0.20525
937,Stanley Crescent,2975000,Flat / Apartment,1657,3,3,3,,London,W11 2NA,51.51249,-0.20525
938,Wimpole Mews,2500000,House,1266,3,3,3,Marylebone,London,W1G 8PE,51.51976,-0.14802
939,Cadogan Gardens,2150000,Flat / Apartment,1064,2,2,2,Sloane Square,London,SW3 2RE,51.49395,-0.16029
940,Park Mansions,1995000,Flat / Apartment,1053,2,2,2,Knightsbridge,London,SW1X 7QS,51.50157,-0.16169
941,Pont Street,1700000,Flat / Apartment,1045,2,2,2,,London,SW1X 0AD,51.49713,-0.16209
942,Empire House,2600000,Flat / Apartment,1722,3,3,3,Thurloe Place,London,SW7 2RU,51.49616,-0.16975
943,Cadogan Gardens,1675000,Flat / Apartment,905,2,2,2,,London,SW3 2TH,51.49234,-0.16029
944,Chester Street,1495000,Flat / Apartment,776,1,1,1,,London,SW1X 7BB,51.49943,-0.15021
945,Rutland Gate,2895000,Flat / Apartment,1398,2,2,2,,London,SW7 1PJ,51.5001,-0.16901
946,Rutland Gate,1450000,Flat / Apartment,675,1,1,1,,London,SW7 1BB,51.50105,-0.1687
947,Hirst Court,795000,Flat / Apartment,691,1,1,1,20 Gatliff Road,London,SW1W 8QD,51.48638,-0.1495
948,Holland Park Avenue,1895000,Flat / Apartment,1522,2,2,2,,London,W11 3QU,51.50846,-0.202
949,Imperial Court,1850000,Flat / Apartment,1480,3,3,3,4-10 Lexham Gardens,London,W8 5JH,51.49511,-0.18963
950,Campden Hill Gate,3500000,Flat / Apartment,1804,4,4,4,Duchess Of Bedford's Walk,London,W8 7QJ,51.50296,-0.19943
951,Vicarage Court,450000,Studio,410,0,0,0,Vicarage Gate,London,W8 4HF,51.50455,-0.19203
952,Cornwall Mansions,2895000,Flat / Apartment,1850,3,3,3,33 Kensington Court,London,W8 5BG,51.50089,-0.18872
953,Campden House,1250000,Flat / Apartment,1317,3,3,3,29 Sheffield Terrace,London,W8 7ND,51.50526,-0.19618
954,Melbury Court,4250000,Flat / Apartment,2713,6,6,6,Kensington High Street,London,W8 6NH,51.49895,-0.20019
955,Lexham Gardens,1300000,Flat / Apartment,1162,2,2,2,,London,W8 5JR,51.49577,-0.19042
956,Thackeray House,1175000,Flat / Apartment,793,2,2,2,Thackeray Street,London,W8 5HA,51.50026,-0.18841
957,Kensington Church Street,4450000,Penthouse,1894,3,3,3,,London,W8 7LP,51.50738,-0.19505
958,Winchester Court,1550000,Flat / Apartment,923,2,2,2,Vicarage Gate,London,W8 4AF,51.50459,-0.19301
959,Hornton Street,1300000,Flat / Apartment,914,2,2,2,,London,W8 7NP,51.50303,-0.19548
960,Vincent Close,1550000,House,2602,4,4,4,Esher,Surrey,KT10 8AW,51.37392,-0.36985
961,Summer Road,1325000,House,2410,5,5,5,Thames Ditton,Surrey,KT7 0QP,51.39451,-0.33545
962,Sheen Gate Gardens,1450000,House,1899,4,4,4,East Sheen,London,SW14 7PD,51.463345765384624,-0.26949589076489544
963,Ranmere Street,1175000,House,1503,4,4,4,,London,SW12 9QQ,51.4448,-0.14568
964,Carlton Drive,795000,New development,823,2,2,2,,London,SW15 2BS,51.45926,-0.21257
965,Drayton Gardens,4750000,House,3104,6,6,6,Chelsea,London,SW10 9RY,51.49007,-0.18212
966,Kings Court Mansions,799950,Flat / Apartment,890,2,2,2,721 Fulham Road,London,SW6 5PB,51.47696,-0.20227
967,Lower Mall,650000,Flat / Apartment,743,2,2,2,,London,W6 9DJ,51.48965905,-0.23142113926623056
968,Burns Road,850000,House,1167,3,3,3,Battersea,London,SW11 5GX,51.47149,-0.1632
969,Candlemakers Apartments,560000,Flat / Apartment,779,1,1,1, Battersea,London,SW11 3RS,51.46744,-0.17925
970,Tyneham Road,910000,House,960,3,3,3,Battersea,London,SW11 5XP,51.46774,-0.15381
971,Emerson Court,399950,Flat / Apartment,621,1,1,1, Wimbledon,London,SW19 7PQ,51.42379,-0.21348
972,Wimbledon Hill Road,465000,Flat / Apartment,592,1,1,1,Wimbledon,London,SW19 7QU,51.424137612500004,-0.21581333176332673
973,Swanage Road,1535000,House,2352,5,5,5,,London,SW18 2DY,51.45228,-0.18346
974,Lammas Road,725000,House,1344,5,5,5,Richmond,Surrey,TW10 7YD,51.43046,-0.31453
975,Kenilworth Court,1295000,Flat / Apartment,1702,4,4,4, Putney,London,SW15 1HA,51.46615,-0.21649
976,Oakhill Road,825000,Flat / Apartment,947,2,2,2,Putney,London,SW15 2FJ,51.459587400000004,-0.2082118568554951
977,Gloucester Avenue,1195000,Flat / Apartment,879,2,2,2,Primrose Hill,London,NW1 8JA,51.54223,-0.15491
978,Regents Park Road,1250000,Flat / Apartment,1061,2,2,2,Regent's Park,London,NW1 7SY,51.53806,-0.15356
979,Harley Road,1350000,Flat / Apartment,1225,2,2,2,,London,NW3 3BN,51.54107,-0.17046
980,St Marys Avenue,1225000,House,2289,5,5,5,Northwood,Middlesex,HA6 3AY,51.6182,-0.424
981,Saxon Court,585000,Flat / Apartment,1032,2,2,2, Northwood,Middlesex,HA6 3FG,51.61194,-0.41526
982,Bromells Road,550000,New development,542,1,1,1,,London,SW4 0BG,51.46249,-0.13883
983,Paramount Court,985000,Flat / Apartment,677,2,2,2, Bloomsbury,London,WC1E 6JP,51.52334,-0.1364
984,Grosvenor Avenue,530000,Flat / Apartment,482,1,1,1,Highbury,London,N5 2NR,51.54955,-0.08934
985,Alwyne Road,4200000,House,2968,3,3,3,Islington,London,N1 2HN,51.54405,-0.09508
986,Lawford Road,1375000,House,1340,3,3,3,Islington,London,N1 5BJ,51.54032,-0.08242
987,Amhurst Road,575000,Flat / Apartment,707,2,2,2,Hackney,London,E8 2AG,51.55012,-0.06253
988,Highfields Grove,2950000,House,2740,4,4,4,Highgate,London,N6 6HN,51.56944,-0.15492
989,Basuto Road,1950000,House,1795,3,3,3, Parsons Green,Fulham,SW6 4BL,51.4757575,-0.19860451908661808
990,Napier Avenue,3250000,House,3156,5,5,5,Fulham,London,SW6 3PT,51.46906,-0.20563
991,Ember Lane,1250000,House,1980,4,4,4,Esher,Surrey,KT10 8EQ,51.38728,-0.35228
992,Sandown House,975000,Penthouse,1634,3,3,3, Esher,Surrey,KT10 9SL,51.3709,-0.36235
993,Pine Walk,1100000,House,1716,4,4,4,Surbiton,Surrey,KT5 8NJ,51.39364,-0.28577
994,Hill House Road,900000,House,1989,3,3,3,,London,SW16 2AQ,51.42448,-0.12086
995,Wards Wharf Approach,300000,Flat / Apartment,517,1,1,1,Newham,London,E16 2ER,51.501,0.03797
996,Junction House,510000,New development,577,1,1,1, Battersea,London,SW11 2NU,51.4654608,-0.17115724999999998
997,Foskett Road,350000,Flat / Apartment,302,1,1,1,Fulham,London,SW6 3LY,51.4709,-0.20513
998,Sinclair Gardens,875000,Flat / Apartment,981,2,2,2,Brook Green,London,W14 0AU,51.50214094,-0.21645710666666668
999,Kingston Vale,1095000,House,2642,3,3,3,Kingston,London,SW15 3RN,51.432483399999995,-0.26461648631726187
1000,Eversley Park,3350000,House,3256,5,5,5,Wimbledon,London,SW19 4UU,51.42469,-0.23648
1001,Ridgmount Road,1350000,House,1723,4,4,4,,London,SW18 2DA,51.45612,-0.18848
1002,Regents Park Road,950000,Flat / Apartment,817,2,2,2,,London,NW1 7TL,51.53784,-0.15024
1003,Green Lane,1275000,House,2711,5,5,5,Oxhey,Hertfordshire,WD19 4NJ,51.64084,-0.39261
1004,Manchuria Road,975000,Flat / Apartment,1013,2,2,2,,London,SW11 6AE,51.45427,-0.15523
1005,Wellington Square,3950000,House,2530,6,6,6,Chelsea,London,SW3 4NW,51.48902,-0.16214
1006,The Gatehouse,475000,Flat / Apartment,650,2,2,2,1 Tiltman Place,London,N7 7EE,51.56134,-0.11596
1007,Tollington Way,575000,New development,840,2,2,2, London,N7 6QX,N7 6RG,51.56173,-0.12293
1008,The Stack,599950,New development,930,3,3,3,Homerton,London,E9 6HP,51.54599865,-0.04215154021210808
1009,Marcon Place,585000,Flat / Apartment,881,2,2,2,Hackney,London,E8 1LP,51.548059,-0.0604231
1010,Lyndale Avenue,1750000,House,2223,4,4,4,Childs Hill,London,NW2 2QA,51.56057,-0.19965
1011,The Butts,2950000,House,4034,6,6,6,Brentford,Middlesex,TW8 8BJ,51.48502,-0.30882
1012,St. Dunstans Avenue,950000,House,1258,4,4,4,Acton,London,W3 6QH,51.51584,-0.26074
1013,South Bank Tower,910000,Flat / Apartment,683,1,1,1, South Bank,London,SE1 9EY,51.50764,-0.10721
1014,Criffel Avenue,1849950,House,2372,5,5,5,Streatham,London,SW2 4AY,51.44148,-0.13013
1015,Ranelagh Mansions,700000,Flat / Apartment,758,2,2,2,New Kings Road,London,SW6 4RH,51.47174,-0.20449
1016,Bradmore Park Road,1275000,House,1419,3,3,3,,London,W6 0DT,51.496279781395344,-0.23226101395348842
1017,South Park Road,425000,Flat / Apartment,549,1,1,1,Wimbledon,London,SW19 8TA,51.42114,-0.19074
1018,Rydens Road,1395000,House,3178,4,4,4,Walton-On-Thames,Surrey,KT12 3AA,51.37736,-0.40661
1019,Grove End Road,3000000,House,2432,4,4,4,St John's Wood,London,NW8 9LY,51.53268,-0.17691
1020,Richmond Hill,2975000,House,3352,6,6,6,Richmond,Surrey,TW10 6QX,51.456800632323365,-0.3029205703910284
1021,Deodar Road,775000,Flat / Apartment,990,2,2,2,Putney,London,SW15 2NJ,51.46312,-0.20834
1022,Rectory Grove,4950000,House,4482,7,7,7,Clapham,London,SW4 0DZ,51.4691517,-0.1404969493975935
1023,Muncaster Road,1850000,House,2088,4,4,4,,London,SW11 6NT,51.45902,-0.15936
1024,Bishops Gate,649000,New development,560,1,1,1,82-88 Fulham High Street,London,SW6 3LF,51.4693662,-0.2104484
1025,Stonefield Street,499950,Flat / Apartment,386,1,1,1,Islington,London,N1 0HW,51.53843,-0.10783
1026,Amwell Court Estate,399950,Flat / Apartment,806,3,3,3, Finsbury Park,London,N4 2NY,51.56632,-0.09261
1027,Packington Street,500000,Flat / Apartment,527,1,1,1,,London,N1 7EA,51.53582,-0.09654
1028,Dalston Lane,1085000,House,1705,3,3,3,Hackney,London,E8 1NG,51.5481755,-0.06523092148666047
1029,Bishops Road,1595000,House,1679,4,4,4,Fulham,London,SW6 7AS,51.47803,-0.20761
1030,Winterdown Road,850000,House,1336,3,3,3,Esher,Surrey,KT10 8LP,51.36258,-0.38489
1031,Gosberton Road,1500000,House,2084,5,5,5,,London,SW12 8LE,51.44582,-0.15694
1032,Hoadly Road,2800000,House,4050,6,6,6,,London,SW16 1AF,51.43697,-0.1363
1033,Landmark Place At Tower Bridge,1799995,New development,1236,2,2,2,Water Lane,London,EC3R 6EA,51.50915,-0.08402
1034,Emlyn Road,2700000,House,2685,5,5,5,Stamford Brook,London,W12 9TD,51.49942017058823,-0.2494998676470588
1035,Berrymede Road,1150000,House,1301,4,4,4,Chiswick,London,W4 5JD,51.49996,-0.26278
1036,Lonsdale Road,2475000,House,2406,5,5,5,Barnes,London,SW13 9DA,51.48499363461538,-0.242695620454112
1037,Tyneham Road,799950,House,766,2,2,2,Battersea,London,SW11 5XR,51.46909,-0.15449
1038,Eaton Square,2950000,Flat / Apartment,1181,2,2,2,Belgravia,London,SW1W 9DF,51.49576,-0.15055
1039,Hazel Lane,2500000,House,4420,6,6,6,Richmond,Surrey,TW10 7AP,51.44178,-0.30203
1040,New Road,950000,House,1397,3,3,3,Richmond,Surrey,TW10 7HY,51.43468,-0.31182
1041,Fontarabia Road,595000,Flat / Apartment,683,1,1,1,,London,SW11 5PE,51.46345,-0.15378
1042,Burland Road,1495000,House,1892,5,5,5,,London,SW11 6SA,51.4562906,-0.16230665
1043,Southwold Mansions,625000,Flat / Apartment,693,2,2,2, Maida Vale,London,W9 2LF,51.52769,-0.19379
1044,Clarendon Court,935000,Flat / Apartment,829,2,2,2,33 Maida Vale,Little Venice,W9 1AJ,51.52509845,-0.17813351291871182
1045,Albion Road,599995,Flat / Apartment,710,2,2,2,,London,N16 9PH,51.553598799999996,-0.08454037871662104
1046,Elrington Road,1650000,House,2048,4,4,4,Hackney,London,E8 3BJ,51.54469,-0.0661
1047,Waldeck Road,525000,New development,666,1,1,1,Ealing,London,W13 8LY,51.51686,-0.31734
1048,Clapham Common South Side,800000,Flat / Apartment,992,2,2,2,,London,SW4 9DX,51.45297,-0.14686
1049,Selkirk Road,995000,House,1716,5,5,5,,London,SW17 0EP,51.43058,-0.17066
1050,Rookery Hill,1750000,House,3184,4,4,4,Ashtead,Surrey,KT21 1EG,51.31025,-0.29327
1051,Snarsgate Street,775000,House,634,2,2,2,,London,W10 6QP,51.51918,-0.22468
1052,Aspley Road,1595000,House,2287,5,5,5,,London,SW18 2DB,51.45567,-0.1883
1053,Pinnacle House,1500000,Flat / Apartment,1438,3,3,3, Juniper Drive,London,SW18 1JE,51.46351,-0.18536
1054,Eaton Square,3750000,Flat / Apartment,1550,2,2,2,Belgravia,London,SW1W 9BG,51.49412,-0.15321
1055,Petersham Road,3250000,House,2989,4,4,4,Richmond,Surrey,TW10 7AH,51.44534254444444,-0.30488034129943303
1056,Eastfields Avenue,895000,Flat / Apartment,1039,2,2,2, Putney,London,SW18 1FU,51.46212845,-0.19682148039201813
1057,Sandmere Road,799999,Flat / Apartment,1076,3,3,3,,London,SW4 7QH,51.46249,-0.12507
1058,Barnard Mews,650000,Duplex,890,2,2,2, Battersea,London,SW11 1QU,51.46138,-0.16682
1059,Fitzwilliam Road,1395000,House,1918,3,3,3,,London,SW4 0DN,51.46619,-0.13953
1060,Alderside Apartments,550000,New development,547,1,1,1, 35 Salusbury Road,London,NW6 6BF,51.5337,-0.20381
1061,The Watergardens,500000,Flat / Apartment,1008,3,3,3, Woodford Green,Essex,IG8 0GD,51.61021,0.02648
1062,Buckingham Road,1550000,House,1378,3,3,3,De Beauvoir,London,N1 4HY,51.54464,-0.08056
1063,Kings College Court,4950000,New development,3330,3,3,3,55 Primrose Hill Road,London,NW3 3EA,51.54402,-0.16304
1064,Kings College Court,2850000,Flat / Apartment,1752,2,2,2,55 Primrose Hill Road,London,NW3 3EA,51.54402,-0.16304
1065,Greensward House,2250000,Flat / Apartment,2557,3,3,3, Fulham,London,SW6 2TG,51.47134,-0.18428
1066,Ternary Place,595000,New development,807,2,2,2,North Ealing,London,W5 3HJ,51.5164921,-0.2910646
1067,Wayneflete Tower Avenue,3300000,House,6309,5,5,5,Esher,Surrey,KT10 8QG,51.37334,-0.37212
1068,Oaklands Road,1225000,House,1758,4,4,4,,London,SW14 8NJ,51.46724517,-0.2646193436456914
1069,Limehouse Wharf,1350000,Flat / Apartment,2264,2,2,2, Canary Wharf,London,E14 8BP,51.509073075,-0.034848834170903537
1070,Lime Quarter,545000,New development,773,2,2,2,Bow,London,E3 3PJ,51.52220925,-0.017978167567573436
1071,Leythe Road,1195000,House,1668,4,4,4,Acton,London,W3 8AW,51.50319,-0.26743
