,Unnamed: 0,Property Name,Price,House Type,Area in sq ft,No. of Bedrooms,No. of Bathrooms,No. of Receptions,Location,City/County,Postal Code,lat,lon
0,0,Queens Road,1675000,House,2716,5,5,5,Wimbledon,London,SW19 8NY,51.4247725,-0.1894494
1,1,Seward Street,650000,Flat / Apartment,814,2,2,2,Clerkenwell,London,EC1V 3PA,51.52640599999999,-0.09782669999999999
2,2,Hotham Road,735000,Flat / Apartment,761,2,2,2,Putney,London,SW15 1QL,51.46507,-0.2236175
3,3,Festing Road,1765000,House,1986,4,4,4,Putney,London,SW15 1LP,51.4691001,-0.2225251
4,4,Spencer Walk,675000,Flat / Apartment,700,2,2,2,Putney,London,SW15 1PL,51.4632986,-0.2221442
5,5,Craven Hill Gardens,420000,Flat / Apartment,403,1,1,1,,London,W2 3EA,51.5130183,-0.1824942
6,6,Alfriston Road,1475000,House,1548,4,4,4,,London,SW11 6NW,51.4571936,-0.1595361
7,7,Bishops Gate,650000,New development,560,1,1,1, Fulham,London,SW6 3LF,51.4698561,-0.2107322
8,8,Adam & Eve Mews,2500000,House,1308,3,3,3,,London,W8 6UG,51.4994239,-0.1943022
9,9,Hornton Street,925000,Flat / Apartment,646,2,2,2,,London,W8 4NT,51.5024467,-0.1943844
10,10,Drakefield Road,2400000,House,3392,6,6,6,,London,SW17 8RR,51.4347115,-0.1538069
11,11,Cromwell Avenue,2500000,House,2974,6,6,6,Highgate,London,N6 5HQ,51.5702659,-0.141769
12,12,Ashley Park Avenue,2795000,House,5294,5,5,5,Walton-on-Thames,Surrey,KT12 1ER,51.3821635,-0.4212792
13,13,Grove End House,725000,Flat / Apartment,778,2,2,2, St. John's Wood,London,NW8 9HP,51.5279538,-0.1748781
14,14,Abercorn Mansions,750000,Flat / Apartment,647,2,2,2,17 Abercorn Place,London,NW8 9DY,51.5326505,-0.1808324
15,15,Chester Terrace,12500000,House,4596,6,6,6,Regents Park,London,NW1 4ND,51.5290806,-0.1452345
16,16,Cambridge Park,1450000,Flat / Apartment,1702,3,3,3,,Twickenham,TW1 2PF,51.4535187,-0.3122096
17,17,Hazelwood Lane,1250000,House,3503,6,6,6, Coulsdon,Surrey,CR5 3QW,51.2999583,-0.1684132
18,18,Elsworthy Rise,2275000,New development,1173,3,3,3,Primrose Hill,London,NW3 3DS,51.5413854,-0.1637122
19,19,St. Anns Road,1075000,Duplex,865,2,2,2,,Holland Park,W11 4SR,51.50822489999999,-0.2152673
20,20,Clapham Road,500000,Flat / Apartment,597,1,1,1,,London,SW9 9BT,51.4665646,-0.1283341
21,21,Devonshire Close,5500000,House,3016,4,4,4,Marylebone,London,W1G 7BA,51.5212809,-0.1473246
22,22,The Draycott,8950000,New development,3154,4,4,4,10 Draycott Avenue,London,SW3 3AA,51.4917035,-0.1627283
23,23,Campden Hill Gardens,1175000,Flat / Apartment,765,2,2,2,,London,W8 7AX,51.5074988,-0.1995308
24,24,College Cross,550000,Flat / Apartment,479,1,1,1,Islington,London,N1 1PT,51.541815,-0.105332
25,25,St Mary's Grove,1300000,House,1101,3,3,3, Islington,London,N1 2NT,51.5453379,-0.0979743
26,26,Goldhurst Terrace,800000,Flat / Apartment,1177,3,3,3,South Hampstead,London,NW6 3HR,51.541808,-0.1833513
27,27,Upper Park Road,3500000,House,2331,4,4,4,Belsize Park,London,NW3 2UP,51.5492899,-0.1608408
28,28,Ditton Grove,374950,New development,664,2,2,2,Esher,Surrey,KT10 9FN,51.3764704,-0.3552103
29,29,Roymount Court,400000,Flat / Apartment,805,2,2,2, Surbiton,Surrey,KT6 6NW,51.3886884,-0.3063748000000001
30,30,Wetherby House,1100000,Flat / Apartment,582,2,2,2,20-21 Wetherby Gardens,London,SW5 0JP,51.4923602,-0.1841086
31,31,Fernside Road,1200000,House,1494,4,4,4,,London,SW12 8LJ,51.4460199,-0.1598125
32,32,Telford Avenue,1250000,House,1507,4,4,4,,London,SW2 4XF,51.4419202,-0.1297588
33,33,Telford Avenue,695000,Flat / Apartment,945,3,3,3,,London,SW2 4XQ,51.4414516,-0.1342099
34,34,Stile Hall Gardens,1735000,House,2118,4,4,4,Chiswick,London,W4 3BS,51.4894567,-0.284552
35,35,Wavendon Avenue,2350000,House,2297,5,5,5,Chiswick,London,W4 4NR,51.4892811,-0.264666
36,36,Duke Road,1200000,House,1351,4,4,4,Chiswick,London,W4 2BA,51.4915139,-0.259381
37,37,Hobury Street,975000,Flat / Apartment,749,2,2,2,,London,SW10 0JB,51.4832974,-0.1795861
38,38,Maltings Close,850000,House,1177,3,3,3,Barnes,London,SW13 0NL,51.4726422,-0.2523811
39,39,Munster Road,1599950,House,1884,4,4,4,Fulham,London,SW6 5RF,51.4752655,-0.2086917
40,40,Khyber Road,925000,Flat / Apartment,1321,2,2,2,,London,SW11 2PZ,51.4692188,-0.1700097
41,41,Coles Court,650000,Flat / Apartment,869,3,3,3,,Battersea,SW11 3DU,51.47318989999999,-0.1726588
42,42,Prince Of Wales Mansions,550000,Flat / Apartment,670,1,1,1,,London,SW11 4BG,51.4754239,-0.1571424
43,43,Old Battersea House,9975000,House,10100,10,10,10, Battersea,London,SW11 3LD,51.4743145,-0.1761563
44,44,Kersley Street,1850000,House,1910,5,5,5,,London,SW11 4PT,51.4727949,-0.1640637
45,45,Battersea Bridge Road,525000,New development,590,1,1,1,,London,SW11 3AU,51.478204,-0.1695351
46,46,Larkhall Rise,2200000,House,2239,4,4,4,,London,SW4 6HS,51.468036,-0.1371575
47,47,Ashley Park Avenue,3450000,House,5599,6,6,6,Walton-on-Thames,Surrey,KT12 1EU,51.37929099999999,-0.4223264
48,48,Carlisle Mansions,1999999,Flat / Apartment,1608,3,3,3, Victoria,London,SW1P 1EZ,51.4948622,-0.1400551
49,49,Park Close,725000,House,884,3,3,3,South Hackney,London,E9 7LF,51.5378894,-0.04859289999999999
50,50,Century Court,1750000,Flat / Apartment,1232,2,2,2,Grove End Road,London,NW8 9LD,51.5279848,-0.1739831
51,51,Eaton Square,5250000,Flat / Apartment,2299,3,3,3,,London,SW1W 9DF,51.4957651,-0.1505209
52,52,Hornsey Town Hall,1250000,New development,1307,3,3,3,Crouch End,London,N8 9JJ,51.5788297,-0.1222021
53,53,"The oTTo, Hackney",490000,New development,570,1,1,1, Downs Road,Clapton,E5 8DS,51.5558913,-0.0577192
54,54,Francis House,3350000,Penthouse,2185,3,3,3,Coleridge Gardens,London,SW10 0RP,51.4804912,-0.1871004
55,55,Wendle Square,1000000,Flat / Apartment,1228,3,3,3,Battersea,London,SW11 4SS,51.4757671,-0.1655141
56,56,Rectory Road,2350000,House,2511,4,4,4,Barnes,London,SW13 0DX,51.4730393,-0.2404433
57,57,Thames Quay,2095000,Flat / Apartment,1528,3,3,3,Chelsea Harbour,London,SW10 0UY,51.4755103,-0.1801983
58,58,Prince Edward Mansions,1250000,Flat / Apartment,811,2,2,2, Bayswater,London,W2 4WA,51.5119816,-0.1933875
59,59,Harbut Road,735000,Flat / Apartment,969,2,2,2,,London,SW11 2RE,51.4624778,-0.1771606
60,60,Chasefield Road,875000,House,1132,4,4,4,Tooting,London,SW17 8LW,51.4290825,-0.1618596
61,61,Fernwood Avenue,1250000,House,2498,6,6,6,,London,SW16 1RD,51.42893960000001,-0.1334536
62,62,Havilland Mews,595000,Flat / Apartment,643,2,2,2,,London,W12 8BG,51.5053755,-0.2343707
63,63,Hampermill Lane,1675000,House,5022,3,3,3,Watford,Hertfordshire,WD19 4PL,51.633804,-0.4156925
64,64,Gatehill Road,2595000,House,4858,6,6,6,Northwood,Middlesex,HA6 3QF,51.6108963,-0.4120855
65,65,St. Davids Mews,820000,House,974,3,3,3,Morgan Street,London,E3 5AZ,51.5269194,-0.0357122
66,66,Chester Close South,830000,Flat / Apartment,850,2,2,2,Regent's Park,London,NW1 4JG,51.5281497,-0.1449408
67,67,Lady Somerset Road,500000,Flat / Apartment,458,1,1,1,Kentish Town,London,NW5 1TX,51.5546073,-0.142739
68,68,Nicholas Way,2500000,House,5999,7,7,7,Northwood,Middlesex,HA6 2TR,51.6046118,-0.4383557
69,69,Queens Grove,7500000,House,3851,6,6,6,St John's Wood,London,NW8 6EN,51.537356,-0.1746172
70,70,Enmore Road,749950,Flat / Apartment,1382,3,3,3,Putney,London,SW15 6LL,51.4605489,-0.2255492
71,71,The Chase,480000,Flat / Apartment,448,1,1,1,,London,SW4 0NP,51.4640618,-0.1468355
72,72,Weymouth Mews,3500000,House,1763,4,4,4,Marylebone,London,W1G 7EB,51.520077,-0.1468257
73,73,Portland Place,2100000,Flat / Apartment,1208,3,3,3,Marylebone,London,W1B 1NX,51.5224586,-0.1455902
74,74,Ternary Place,650000,New development,1023,2,2,2, Ealing,London,W5 3HJ,51.5160765,-0.2908447
75,75,Weston Park,1050000,House,1693,4,4,4,Thames Ditton,Surrey,KT7 0HQ,51.3833103,-0.3453748
76,76,Lysias Road,1300000,House,1890,5,5,5,,London,SW12 8BW,51.4506633,-0.1514364
77,77,Prince Henry Road,625000,House,1348,4,4,4,Kidbrooke,London,SE7 8PP,51.4761454,0.0401557
78,78,Kirby Street,625000,Flat / Apartment,540,1,1,1,Clerkenwell,London,EC1N 8TE,51.5199258,-0.107495
79,79,Great Peter Street,1100000,New development,791,2,2,2,Westminster,London,SW1P 2BN,51.4967412,-0.1315361
80,80,Walton Street,5950000,House,2646,4,4,4,,London,SW3 1RE,51.4975503,-0.1634007
81,81,Chatto Road,1325000,House,1375,4,4,4,,London,SW11 6LL,51.4557139,-0.1603728
82,82,Redcliffe Square,1250000,Flat / Apartment,1068,2,2,2,,London,SW10 9JY,51.48862219999999,-0.188953
83,83,Elm Park Lane,2300000,House,1119,3,3,3,,London,SW3 6DB,51.4866953,-0.1777656
84,84,Fassett Square,1500000,House,1811,4,4,4,Hackney,London,E8 1DQ,51.5468553,-0.06543059999999999
85,85,Haverhill Road,1350000,House,1603,5,5,5,,London,SW12 0HD,51.4438075,-0.1415537
86,86,Duckman Tower,799995,Flat / Apartment,942,3,3,3, Canary Wharf,London,E14 9BL,51.4984653,-0.0196184
87,87,St. Stephens Crescent,795000,Flat / Apartment,495,1,1,1,,London,W2 5QT,51.5180701,-0.1945879
88,88,West Grove,525000,House,829,2,2,2,Woodford Green,Essex,IG8 7NP,51.6104353,0.0416365
89,89,Ackmar Road,2595000,House,2120,5,5,5,Fulham,London,SW6 4UP,51.4748538,-0.1994198
90,90,Romney House,820000,Flat / Apartment,631,2,2,2, Westminster,London,SW1P 3DS,51.4959736,-0.1285132
91,91,Seymour Gardens,1200000,House,2108,4,4,4,Surbiton,Surrey,KT5 8QE,51.3942363,-0.2920831
92,92,Sycamore Gardens,680000,Flat / Apartment,705,2,2,2,,London,W6 0AP,51.5002199,-0.2300027
93,93,Quarrendon Street,2300000,House,1956,3,3,3,,London,SW6 3SU,51.4727317,-0.1959178
94,94,Meredyth Road,2300000,House,2083,5,5,5,Barnes,London,SW13 0DS,51.4735497,-0.2408989
95,95,Baronsmead Road,4000000,House,3714,5,5,5,Barnes,London,SW13 9RR,51.47733359999999,-0.2401629
96,96,Sisters Avenue,500000,Flat / Apartment,516,2,2,2,,London,SW11 5SQ,51.4633477,-0.1597349
97,97,Warrington Gardens,1275000,Flat / Apartment,1185,3,3,3,Little Venice,London,W9 2PZ,51.5238021,-0.1843422
98,98,Pembroke Villas,4500000,House,2972,3,3,3,,London,W8 6PG,51.4957655,-0.1984849
99,99,North End Road,1750000,House,2125,4,4,4,Hampstead,London,NW11 7SY,51.5699271,-0.1873822
100,100,Heath Hurst Road,2600000,House,2350,4,4,4,Hampstead,London,NW3 2RU,51.5548645,-0.1676844
101,101,Tercelet Terrace,3450000,House,2354,4,4,4, Hampstead,London,NW3 7LW,51.5566103,-0.1828048
102,102,Kersley Street,2350000,House,2183,5,5,5,,London,SW11 4PR,51.4730346,-0.1644429
103,103,Buckingham Gate,2375000,Flat / Apartment,1218,2,2,2,St. James's,London,SW1E 6LB,51.4996065,-0.1403806
104,104,Camelot Close,1995000,House,1841,5,5,5,Wimbledon,London,SW19 7EA,51.4313497,-0.2025401
105,105,Clarendon Close,1000000,House,1154,4,4,4,South Hackney,London,E9 7BY,51.5396225,-0.0484466
106,106,Klea Avenue,1795000,House,2314,5,5,5,,London,SW4 9HG,51.4538456,-0.1416931
107,107,Manor Place Depot,687500,New development,1178,3,3,3,,London,SE17 3BD,51.4890582,-0.0972214
108,108,Molyneux Street,2450000,House,1483,3,3,3,,London,W1H 5HW,51.5178835,-0.1640239
109,109,Gatti House,3500000,Flat / Apartment,1770,2,2,2,410 Strand,London,WC2R 0NR,51.5101538,-0.1228015
110,110,Stanmore Way,1225000,New development,2487,5,5,5,Loughton,Essex,IG10 2SA,51.66254619999999,0.06951439999999999
111,111,Thornhill Crescent,850000,Flat / Apartment,773,2,2,2,Barnsbury,London,N1 1BJ,51.541315,-0.1144814
112,112,Belsize Square,780000,Flat / Apartment,654,2,2,2,,London,NW3 4HL,51.5474211,-0.1689931
113,113,Ditton Grove,399950,New development,697,2,2,2,Esher,Surrey,KT10 9FN,51.3765693,-0.3552015
114,114,Sylvan Gardens,1499950,House,2982,5,5,5,Surbiton,Surrey,KT6 6PP,51.3858391,-0.3108344
115,115,Milton Road,900000,House,1081,3,3,3,,London,SW14 8JP,51.4660153,-0.2657644
116,116,Drakefield Road,2500000,House,3986,6,6,6,,London,SW17 8RR,51.4347115,-0.1538069
117,117,Chiswick High Road,575000,Flat / Apartment,773,2,2,2,Chiswick,London,W4 4AG,51.49245459999999,-0.2725262
118,118,Bewick Street,1250000,House,1708,5,5,5,,London,SW8 3TA,51.4705057,-0.147165
119,119,Overstrand Mansions,1575000,Flat / Apartment,1580,3,3,3,Prince of Wales Drive,London,SW11 4EZ,51.4751456,-0.1574173
120,120,Somerset Road,4750000,House,6602,6,6,6,Wimbledon,London,SW19 5JZ,51.4339564,-0.2201483
121,121,Burleigh Place,1175000,House,1909,4,4,4,Putney,London,SW15 6ES,51.45904239999999,-0.2193026
122,122,Smarts Lane,695000,House,1337,3,3,3,Loughton,Essex,IG10 4BU,51.646496,0.0529843
123,123,Freshford Street,1200000,House,1771,4,4,4,,London,SW18 3TF,51.43639049999999,-0.1853356
124,124,Ellerton Road,1700000,House,2374,5,5,5,Wandsworth,London,SW18 3NH,51.44208889999999,-0.1747058
125,125,Ladbroke Crescent & Basement,1000000,House,2125,2,2,2,131 Ladbroke Grove,London,W11 1PS,51.5159512,-0.2100648
126,126,Barts Square,1635000,New development,903,2,2,2, City Of London,London,EC1A 9DS,51.5186016,-0.1001267
127,127,Elizabeth Place,625000,Flat / Apartment,902,2,2,2, Esher,Surrey,KT10 8AP,51.3779103,-0.3700834
128,128,Gleneldon Road,1850000,House,3753,6,6,6,,London,SW16 2BZ,51.42700929999999,-0.1218373
129,129,Windsor Court,2400000,Flat / Apartment,1736,4,4,4, Bayswater,London,W2 4SN,51.5127314,-0.1895243
130,130,Southbank Place,1200000,New development,590,1,1,1, South Bank,London,SE1 7NJ,51.5029885,-0.1156322
131,131,The oTTo,785000,New development,1173,2,2,2, The Otto Buildings,Downs Road,E5 8DS,51.5558913,-0.0577192
132,132,Haldane Road,1250000,House,1298,2,2,2,,London,SW6 7EU,51.482755,-0.2021334
133,133,Chipstead Street,2300000,House,1912,3,3,3, Fulham,London,SW6 3SS,51.4730702,-0.1951269
134,134,Ruxley Crescent,1800000,New development,3877,4,4,4, Esher,Surrey,KT10 0TX,51.35810420000001,-0.3245217
135,135,Sydney House,1300000,Flat / Apartment,1465,3,3,3,Woodstock Road,London,W4 1DP,51.4967802,-0.255521
136,136,Waldemar Avenue,1750000,House,1580,4,4,4,Fulham,London,SW6 5NA,51.4731759,-0.2108327
137,137,Newstead Way,1495000,House,2300,4,4,4,,London,SW19 5HR,51.4329607,-0.2173528
138,138,Crescent Road,1855000,House,2917,5,5,5,Kingston upon Thames,Surrey,KT2 7RD,51.4194694,-0.2834483
139,139,Melody Road,1625000,House,1953,4,4,4,,London,SW18 2QF,51.456544,-0.1836297
140,140,Hasker Street,3150000,House,1449,3,3,3,,London,SW3 2LE,51.49479179999999,-0.1652692
141,141,Spring Terrace,5250000,House,4745,7,7,7,Richmond,Surrey,TW9 1LW,51.4605525,-0.2998725
142,142,Montague Road,6000000,House,4798,6,6,6,Richmond,Surrey,TW10 6QW,51.4558167,-0.2988536
143,143,Fairfax Mews,1395000,House,1902,5,5,5,Putney,London,SW15 6FF,51.4622432,-0.2263904
144,144,Fairacres,1385000,Flat / Apartment,2056,3,3,3, Putney,London,SW15 5LX,51.4616054,-0.2443667
145,145,Clapham Common South Side,800000,Flat / Apartment,922,2,2,2,,London,SW4 9DX,51.4529738,-0.1468381
146,146,Ormond Yard,3695000,House,2316,4,4,4,St James's,London,SW1Y 6JT,51.5081724,-0.1367172
147,147,Cadogan Square,2200000,Flat / Apartment,1195,2,2,2,,London,SW1X 0JL,51.4959044,-0.1616661
148,148,Cadogan Square,1175000,Flat / Apartment,687,2,2,2,,London,SW1X 0JL,51.4959044,-0.1616661
149,149,Aubrey Walk,9500000,House,4815,5,5,5,,London,W8 7JG,51.506524,-0.2010535
150,150,Oakwood Court,3100000,Flat / Apartment,2470,4,4,4,Holland Park,London,W14 8JS,51.4997303,-0.2066521
151,151,Barnsbury Park,5500000,House,3674,4,4,4,Islington,London,N1 1HQ,51.5428539,-0.1089663
152,152,Fieldsway House,925000,Flat / Apartment,1012,3,3,3, Highbury,London,N5 1QA,51.5494126,-0.1052614
153,153,Long & Waterson Apartments,550000,Penthouse,414,1,1,1, Hackney,London,E2 8HN,51.52905,-0.0765554
154,154,Mare Street,260000,Studio,381,0,0,0,Hackney,London,E8 3RH,51.5394789,-0.0565861
155,155,Reliance Wharf,550000,Flat / Apartment,547,1,1,1,Hertford Road,London,N1 5ET,51.5369587,-0.0787992
156,156,Gayton Road,2400000,House,2202,5,5,5,Hampstead,London,NW3 1TU,51.556334,-0.1754297
157,157,Ram Quarter,580000,New development,460,1,1,1, Wandsworth,London,SW18 1TH,51.4589077,-0.1911078
158,158,Grimston Road,2300000,House,2785,5,5,5,Fulham,London,SW6 3QR,51.4702203,-0.2069023
159,159,Balham Grove,1200000,House,1270,3,3,3,,London,SW12 8BE,51.4483633,-0.1527095
160,160,Fernside Road,1500000,House,1934,5,5,5,,London,SW12 8LH,51.4458359,-0.1595465
161,161,Walsingham Place,2250000,House,2605,5,5,5,,London,SW4 9RR,51.45453699999999,-0.1535831
162,162,Englewood Road,1500000,House,2047,4,4,4,,London,SW12 9NZ,51.4527569,-0.1450621
163,163,Streathbourne Road,2150000,House,2850,5,5,5,,London,SW17 8RA,51.4354273,-0.1524399
164,164,Rowfant Road,1595000,House,2555,6,6,6,,London,SW17 7AP,51.4413524,-0.1569351
165,165,Tantallon Road,1565000,House,2088,5,5,5,,London,SW12 8DH,51.4451487,-0.1587394
166,166,Honeybrook Road,1500000,House,2173,5,5,5,,London,SW12 0DL,51.4486881,-0.1425357
167,167,Fenn Mansions,400000,Flat / Apartment,774,2,2,2,20 Love Lane,London,SE18 6GY,51.48859419999999,0.0656754
168,168,New Providence Wharf,415000,Flat / Apartment,525,1,1,1, Canary Wharf,London,E14 9PW,51.5062915,-0.0043787
169,169,Enclave Court,1395000,Penthouse,1230,2,2,2,2 Dallington Street,London,EC1V 0BH,51.524681,-0.1001475
170,170,Fairfax Road,2800000,House,2734,6,6,6, Chiswick,London,W4 1EN,51.49790059999999,-0.2522510000000001
171,171,Redcliffe Gardens,1195000,Flat / Apartment,872,2,2,2,Chelsea,London,SW10 9HA,51.4851343,-0.1861241
172,172,Drayton Court,2750000,Flat / Apartment,1839,4,4,4,Drayton Gardens,London,SW10 9RH,51.4880175,-0.1806801
173,173,Lower Mall,6950000,House,5501,6,6,6,Hammersmith,London,W6 9DJ,51.48993309999999,-0.2318417
174,174,Albert Bridge Road,2750000,House,2675,4,4,4,Battersea,London,SW11 4PX,51.4735385,-0.1633139
175,175,Ridgway,525000,Flat / Apartment,514,2,2,2,Wimbledon,London,SW19 4SX,51.42050949999999,-0.2211452
176,176,Lowndes Square,5450000,Flat / Apartment,1920,3,3,3,,London,SW1X 9HB,51.50042320000001,-0.1579398
177,177,Basilica Mews,2325000,New development,2392,4,4,4,,Thurleigh Road,SW12 8UF,51.45243199999999,-0.1552512
178,178,Devonshire Mews South,3750000,House,3256,3,3,3,Marylebone,London,W1G 6QW,51.5208914,-0.1488539
179,179,Ovington Gardens,1750000,Flat / Apartment,714,2,2,2,,London,SW3 1LS,51.49753459999999,-0.1658506
180,180,Cubitt Building,750000,Flat / Apartment,604,1,1,1, Chelsea,London,SW1W 8QL,51.4864482,-0.1487806
181,181,Iverna Court,3150000,Flat / Apartment,1755,4,4,4,,London,W8 6TS,51.5002778,-0.1936921
182,182,Selborne Villas,1150000,House,2357,4,4,4, Esher,Surrey,KT10 9UD,51.3720308,-0.3598898
183,183,Waleorde Road,575000,Flat / Apartment,800,2,2,2,,London,SE17 1GG,51.4887176,-0.09507489999999999
184,184,Louisville Road,1250000,House,2475,6,6,6,,London,SW17 8RU,51.4340278,-0.1543668
185,185,Langroyd Road,1150000,House,1703,4,4,4,,London,SW17 7PL,51.43751880000001,-0.163075
186,186,Dance Square,650000,Flat / Apartment,584,1,1,1, Clerkenwell,London,EC1V 3AN,51.5258796,-0.0975314
187,187,Cranbrook Road,1295000,House,1356,4,4,4,Chiswick,London,W4 2LH,51.49192499999999,-0.2531566
188,188,Buer Road,765000,Flat / Apartment,1362,3,3,3, Fulham,London,SW6 4LA,51.4705218,-0.2089783
189,189,Lillian Road,1100000,House,1420,3,3,3,Barnes,London,SW13 9JF,51.4872054,-0.2364269
190,190,Ranelagh Avenue,2350000,House,2153,4,4,4,Barnes,London,SW13 0BL,51.4716917,-0.2411287
191,191,Hillbrook Road,965000,House,1222,4,4,4,Tooting Bec,London,SW17  8SF,51.4322542,-0.1599628
192,192,Weller Court,1750000,Flat / Apartment,732,1,1,1, Holland Park,London,W11 3NT,51.5086155,-0.2049196
193,193,"The oTTo, Hackney",800000,New development,1119,2,2,2, Clapton,E5 8DE,E5 8DS,51.5558913,-0.0577192
194,194,The Grange,1050000,House,2375,5,5,5, Walton-on-Thames,Surrey,KT12 3HN,51.3797446,-0.4106424
195,195,Stuart Tower,475000,Flat / Apartment,525,1,1,1,105 Maida Vale,London,W9 1UJ,51.5280369,-0.1813912
196,196,Abbey Road Cross,752500,New development,874,2,2,2,131-143 Belsize Road,London,NW6 4BR,51.5394724,-0.187583
197,197,Ardleigh Road,1399950,House,1748,4,4,4,,De Beauvoir,N1 4FA,51.5435418,-0.08322349999999999
198,198,Littleworth Avenue,2795000,House,6061,7,7,7,Esher,Surrey,KT10 9PB,51.3659076,-0.3554538
199,199,Ruxley Crescent,1750000,New development,3913,4,4,4, Esher,Surrey,KT10 0TX,51.35810420000001,-0.3245217
200,200,Clapham Common West Side,2995000,House,3406,5,5,5,Between The Commons,London,SW4 9AU,51.4565549,-0.1555169
201,201,Parkfield Avenue,1825000,House,2500,5,5,5,,London,SW14 8DY,51.4636486,-0.2583679
202,202,Sutherland House,550000,Flat / Apartment,609,2,2,2,137-139 Queenstown Road,London,SW8 3RJ,51.4705547,-0.1496972
203,203,Hambalt Road,1850000,House,2516,5,5,5,,London,SW4 9EL,51.4544983,-0.1380538
204,204,Ormond House,625000,Flat / Apartment,428,1,1,1, Westminster,London,SW1P 2TB,51.4959734,-0.1318844
205,205,Buckingham Gate,2290000,Flat / Apartment,1604,2,2,2,St. James's,London,SW1E 6LB,51.4993659,-0.1390216
206,206,Radnor Walk,3450000,House,1820,5,5,5,Chelsea,London,SW3 4BN,51.4876565,-0.1650084
207,207,King Henrys Road,995000,Flat / Apartment,710,2,2,2,Primrose Hill,London,NW3 3QR,51.5423372,-0.1584533
208,208,ICON7,450000,New development,538,1,1,1, Holloway,London,N7 0JN,51.5527167,-0.1250736
209,209,Montgomery Road,850000,Flat / Apartment,935,2,2,2,Chiswick,London,W4 5LZ,51.4959151,-0.2687504
210,210,Carlton Mansions,975000,Flat / Apartment,950,2,2,2, Maida Vale,London,W9 1NP,51.5317637,-0.1886103
211,211,Palace Gardens Terrace,1850000,Flat / Apartment,924,3,3,3,,London,W8 4SA,51.5061073,-0.192669
212,212,Acer Road,940000,House,1074,3,3,3,Hackney,London,E8 3GX,51.5433957,-0.07049509999999999
213,213,Corkran Road,1595000,House,3261,5,5,5,Surbiton,Surrey,KT6 6PN,51.3866029,-0.3051869
214,214,Grosvenor Avenue,1275000,House,1779,4,4,4,,London,SW14 8BT,51.4661084,-0.2580872
215,215,Enmore Gardens,1325000,House,1541,4,4,4,,London,SW14 8RF,51.4592214,-0.262423
216,216,Oxhey Road,850000,House,1687,4,4,4,Oxhey,Hertfordshire,WD19 4QG,51.6411034,-0.3884407
217,217,Grandison Road,865000,Flat / Apartment,880,2,2,2,,London,SW11 6LN,51.4570723,-0.1604046
218,218,Lavender Sweep,650000,Flat / Apartment,859,2,2,2,,London,SW11 1EA,51.4617103,-0.1642779
219,219,Hollandgreen Place,3500000,New development,1577,2,2,2,,London,W8 6AX,51.4993904,-0.2003116
220,220,Horsell Road,1695000,House,1944,5,5,5,Highbury,London,N5 1XP,51.5505878,-0.1078666
221,221,Avon Court,399995,Flat / Apartment,472,1,1,1, Canary Wharf,London,E14 7SZ,51.5137996,-0.0271682
222,222,Castelnau,5750000,House,4682,6,6,6,Barnes,London,SW13 9EU,51.48176789999999,-0.2360317
223,223,Lower Belgrave Street,4650000,House,2865,4,4,4,Belgravia,London,SW1W 0LN,51.4968748,-0.1478971
224,224,Harper Lane,1650000,House,4016,8,8,8, Radlett,Hertfordshire,WD7 9HJ,51.6964029,-0.3014942
225,225,Donne Place,2800000,House,1448,3,3,3,,London,SW3 2NH,51.4940937,-0.1672133
226,226,Oakley Road,1100000,Flat / Apartment,1056,3,3,3,,London,N1 3LL,51.5430017,-0.0864911
227,227,Goldhurst House,2650000,Flat / Apartment,1811,3,3,3, Parr's Way,London,W6 9AN,51.48671390000001,-0.2264929
228,228,Telford Avenue,1575000,House,2550,5,5,5,,London,SW2 4XL,51.44236859999999,-0.129683
229,229,Mandeville Courtyard,525000,Flat / Apartment,775,1,1,1,142 Battersea Park Road,London,SW11 4NB,51.4743347,-0.1573203
230,230,Tufton Street,1650000,Flat / Apartment,1099,2,2,2,Westminster,London,SW1P 3AF,51.49559499999999,-0.1278948
231,231,Colosseum Terrace,850000,Flat / Apartment,726,2,2,2,Albany Street,London,NW1 4EB,51.5266321,-0.1445123
232,232,Rede Place,2700000,House,1791,3,3,3,Notting Hill,London,W2 4TU,51.5137726,-0.1940661
233,233,Tennyson Road,695000,House,795,2,2,2,Wimbledon,London,SW19 8SH,51.42391689999999,-0.1870379
234,234,Coleford Road,1400000,House,1799,4,4,4,London,Wandsworth,SW18 1AD,51.4588744,-0.1866178
235,235,St. Anns Terrace,2050000,House,1293,3,3,3,St John's Wood,London,NW8 6PJ,51.534522,-0.171645
236,236,Durward Street,615000,Flat / Apartment,972,2,2,2,Whitechapel,London,E1 5BA,51.51987219999999,-0.06075100000000001
237,237,Fairacres,1000000,Flat / Apartment,1777,3,3,3, Putney,London,SW15 5LX,51.4616054,-0.2443667
238,238,Clapham Park Road,315000,Flat / Apartment,526,1,1,1,,London,SW4 7EX,51.459848,-0.1312143
239,239,Moore House,1850000,New development,1328,3,3,3,2 Gatliff Road,London,SW1W 8DT,51.4881328,-0.1501096
240,240,Graham Terrace,2895000,House,1289,3,3,3,,London,SW1W 8HN,51.4911624,-0.1546111
241,241,Whiston House,450000,Flat / Apartment,459,1,1,1,Bingham Court,London,N1 2DH,51.5417615,-0.1003588
242,242,Grand Avenue,500000,House,963,2,2,2,Surbiton,Surrey,KT5 9HU,51.389622,-0.2766599
243,243,Tooting Bec Road,675000,Flat / Apartment,949,2,2,2,,London,SW17 8BW,51.4339214,-0.1550329
244,244,Dance Square,650000,Flat / Apartment,583,1,1,1,Peartree Street,Clerkenwell,EC1V 3AN,51.5258796,-0.0975314
245,245,Flanders Road,1395000,House,1068,1,1,1,Chiswick,London,W4 1NB,51.4957694,-0.2504453
246,246,The Spinney,2395000,House,4966,5,5,5, Oxshott,Surrey,KT22 0PL,51.34119159999999,-0.3570275
247,247,Astley House,725000,Flat / Apartment,858,3,3,3,42 Trinity Church Road,London,SW13 8EA,51.4832949,-0.2305431
248,248,Suffolk Road,2000000,House,2525,4,4,4,Barnes,London,SW13 9PH,51.4789413,-0.2406339
249,249,Shorrolds Road,625000,Flat / Apartment,664,2,2,2,,London,SW6 7TP,51.4812634,-0.2010398
250,250,Raynham Road,1350000,House,1328,3,3,3,Brackenbury Village,London,W6 0HY,51.49541439999999,-0.2333584
251,251,Henning Street,2100000,House,2191,4,4,4,Battersea,London,SW11 3DR,51.4736258,-0.1712014
252,252,The Mount,3650000,House,8034,6,6,6,Esher,Surrey,KT10 8LQ,51.3624334,-0.3752005
253,253,Palewell Park,1850000,House,1892,4,4,4,,London,SW14 8JJ,51.46126080000001,-0.2647209
254,254,Cranbourne Court,1500000,Flat / Apartment,1132,3,3,3,Albert Bridge Road,London,SW11 4PE,51.4804752,-0.1664055
255,255,Rothwell Street,3625000,House,2190,4,4,4,Primrose Hill,London,NW1 8YH,51.5405045,-0.1568545
256,256,New Concordia Wharf,1500000,Flat / Apartment,1274,2,2,2,Mill Street,London,SE1 2BB,51.5019415,-0.0711522
257,257,Castelnau,525000,Flat / Apartment,630,2,2,2,Barnes,London,SW13 9ER,51.485224,-0.2338387
258,258,Banbury House,290000,Flat / Apartment,455,1,1,1,Banbury Road,London,E9 7ED,51.5389487,-0.0430822
259,259,Putney Heath Lane,1725000,House,2931,5,5,5,Putney,London,SW15 3JG,51.4520999,-0.2198893
260,260,Rydon Street,1395000,House,1510,3,3,3,Islington,London,N1 7AL,51.5371806,-0.0918256
261,261,Aragon Tower,400000,Flat / Apartment,705,2,2,2,George Beard Road,Deptford,SE8 3AL,51.4906741,-0.0316966
262,262,Cadogan Lane,3350000,House,1504,3,3,3,,London,SW1X 9DU,51.49505420000001,-0.156197
263,263,Cedar Mews,1795000,House,2067,4,4,4, Putney,London,SW15 6ED,51.4581501,-0.2209495
264,264,Tormead,600000,Flat / Apartment,1160,2,2,2, Northwood,Middlesex,HA6 2BX,51.6138337,-0.4299219
265,265,Kent Avenue,1500000,House,1997,4,4,4,Ealing,London,W13 8BH,51.5234186,-0.3210431
266,266,Trefoil Road,1600000,House,2149,4,4,4,Wandsworth,London,SW18 2EQ,51.45666620000001,-0.1822286
267,267,Thirlmere Road,1550000,House,3620,7,7,7,,London,SW16 1QW,51.4291423,-0.1360204
268,268,The Regency,1325000,Flat / Apartment,1195,3,3,3, Westminster,London,SW1P 4HD,51.4919695,-0.1334455
269,269,Murray Mews,1395000,House,1587,3,3,3,Camden,London,NW1 9RJ,51.544407,-0.1306793
270,270,Wilmington Square,735000,Flat / Apartment,849,2,2,2,,London,WC1X 0ER,51.5269111,-0.1095984
271,271,Lynwood Road,825000,House,2094,4,4,4,Thames Ditton,Surrey,KT7 0DJ,51.3792079,-0.3401625
272,272,Telfords Yard,1500000,Flat / Apartment,2550,3,3,3,,London,E1W 2BQ,51.5089508,-0.06484659999999999
273,273,Landmark East Tower,679000,Flat / Apartment,832,2,2,2, Canary Wharf,London,E14 9DB,51.502014,-0.0247381
274,274,Stanley Mansions,1500000,Flat / Apartment,1244,3,3,3,Park Walk,London,SW10 0AG,51.4858083,-0.1802927
275,275,Ducks Hill Road,1000000,New development,1501,3,3,3,Northwood,Middlesex,HA6 2SB,51.6107583,-0.4393868
276,276,Blomfield Road,4995000,House,3035,4,4,4,Little Venice,London,W9 2PF,51.5216445,-0.1832173
277,277,Wadham Road,1350000,House,1604,4,4,4,Putney,London,SW15 2LS,51.4618163,-0.2095349
278,278,Bingfield Street,625000,New development,723,2,2,2,,London,N1 0BH,51.5391493,-0.1179309
279,279,Orsman Road,600000,Flat / Apartment,660,2,2,2,Hackney,London,N1 5QL,51.53664269999999,-0.079274
280,280,Cinnabar Wharf East,875000,Flat / Apartment,627,1,1,1,28 Wapping High Street,London,E1W 1NG,51.5038004,-0.06499289999999999
281,281,Boardwalk Place,565000,Flat / Apartment,872,2,2,2,Canary Wharf,London,E14 5SH,51.5059784,-0.009767399999999999
282,282,Carlyle Square,5850000,House,3128,5,5,5,,London,SW3 6EX,51.4868347,-0.1722721
283,283,Burlington Lodge Studios,1250000,Flat / Apartment,1201,2,2,2,48 Rigault Road,London,SW6 4JJ,51.4715207,-0.2090256
284,284,Overstrand Mansions,1800000,Flat / Apartment,1453,3,3,3,Prince of Wales Drive,London,SW11 4HA,51.4752125,-0.1570978
285,285,Eden House,1495000,New development,1781,4,4,4,New Road,London,N8 8TA,51.5816773,-0.1248059
286,286,Fentiman Road,3100000,House,3800,8,8,8,,London,SW8 1QA,51.4816879,-0.1203127
287,287,Craven Gardens,1050000,Flat / Apartment,1831,3,3,3,Wimbledon,London,SW19 8LU,51.4248418,-0.1951141
288,288,Leopold Road,1850000,House,2503,5,5,5,Wimbledon,London,SW19 7JG,51.4296765,-0.2054397
289,289,Queensland Road,730000,Flat / Apartment,1061,3,3,3,,London,N7 7FF,51.55349520000001,-0.1074863
290,290,St. Marys Road,2900000,House,5896,7,7,7, Surbiton,Surrey,KT6 5EY,51.38453879999999,-0.3142164
291,291,Rowfant Road,650000,Flat / Apartment,736,2,2,2,,London,SW17 7AP,51.4413524,-0.1569351
292,292,Cleveland Gardens,2100000,House,2438,5,5,5,Barnes,London,SW13 0AJ,51.4707611,-0.2492565
293,293,Elm Bank Gardens,2250000,House,2600,5,5,5,Barnes,London,SW13 0NT,51.4710488,-0.2534787
294,294,Belleville Road,1695000,House,1867,5,5,5,,London,SW11 6QT,51.4561024,-0.1668059
295,295,Cottenham Park Road,1375000,House,1884,4,4,4,Wimbledon,London,SW20 0SB,51.4157924,-0.2327042
296,296,Barmouth Road,1400000,House,2138,5,5,5,Wandsworth,London,SW18 2DT,51.4523404,-0.1839548
297,297,St. Stephen's Gardens,635000,Flat / Apartment,927,2,2,2,Putney,London,SW15 2RR,51.45848600000001,-0.2058074
298,298,Upper St. Martin's Lane,2995000,Penthouse,1845,3,3,3,,London,WC2H 9DL,51.5128804,-0.1274165
299,299,Egerton Gardens,1000000,House,1758,4,4,4,,Ealing,W13 8HQ,51.5189166,-0.3175044
300,300,Alpine Grove,449950,Flat / Apartment,526,2,2,2,South Hackney,London,E9 7SX,51.53967489999999,-0.0488914
301,301,Townshend Court,425000,Flat / Apartment,474,1,1,1,Shannon Place,London,NW8 7DP,51.5349209,-0.1660921
302,302,High Road,650000,House,1783,3,3,3, Coulsdon,Surrey,CR5 3SD,51.2847577,-0.1716141
303,303,Parkfields,1795000,House,1902,3,3,3,Putney,London,SW15 6NH,51.4621787,-0.2268824
304,304,Fitzroy Road,1600000,Flat / Apartment,801,2,2,2,Primrose Hill,London,NW1 8TU,51.5406699,-0.1536464
305,305,The Lodge,1750000,Flat / Apartment,1002,3,3,3,Kensington Park Gardens,London,W11 3HA,51.5107258,-0.2047213
306,306,Culmstock Road,2050000,House,2275,5,5,5,,London,SW11 6LX,51.4572551,-0.1571585
307,307,Mallinson Road,1150000,Flat / Apartment,1371,3,3,3,,London,SW11 1BW,51.4582402,-0.1683756
308,308,South Terrace,995000,House,2446,5,5,5,,London,SW7 2TB,51.4944151,-0.1699376
309,309,Douglas Road,1900000,House,1703,5,5,5,Islington,London,N1 2LD,51.5434621,-0.0948797
310,310,Union Wharf,675000,Flat / Apartment,792,1,1,1,23 Wenlock Road,London,N1 7SJ,51.5326509,-0.0953025
311,311,Long & Waterson Apartments,1500000,New development,1273,3,3,3, Hackney,London,E2 8HN,51.52905,-0.0765554
312,312,ICON7,620000,New development,786,2,2,2, Holloway,London,N7 0JN,51.5527167,-0.1250736
313,313,Branch Place,650000,Flat / Apartment,747,2,2,2,De Beauvoir,London,N1 5PH,51.5372709,-0.08468389999999999
314,314,Hermitage Court,500000,Flat / Apartment,663,1,1,1,Knighten Street,London,E1W 1PW,51.5040531,-0.0634116
315,315,Kirkstall Road,1395000,House,2006,5,5,5,,London,SW2 4HF,51.4428065,-0.1289456
316,316,St. Peters Square,2950000,House,3597,4,4,4,,London,W6 9AJ,51.4910115,-0.2437706
317,317,Carlton House,765000,New development,841,2,2,2,Carlton Drive,London,SW15 2BS,51.4592633,-0.2125427
318,318,Cleveland Gardens,1600000,House,1854,4,4,4,Barnes,London,SW13 0AH,51.470728,-0.2500497
319,319,Abercrombie Street,975000,House,1126,3,3,3,,London,SW11 2JB,51.4712872,-0.1671336
320,320,Juer Street,1699999,House,2119,5,5,5,Battersea,London,SW11 4RF,51.4782397,-0.1672151
321,321,Foxmore Street,950000,Flat / Apartment,1294,4,4,4,Battersea,London,SW11 4PU,51.4735704,-0.1636294
322,322,Southwick Mews,2150000,House,1582,3,3,3,Paddington,London,W2 1JG,51.51656550000001,-0.1711826
323,323,Pall Mall,2950000,Penthouse,1840,2,2,2,St James's,London,SW1Y 5JH,51.5057482,-0.1369603
324,324,Britannia Road,1500000,House,1115,3,3,3,Fulham,London,SW6 2HJ,51.47854,-0.1917717
325,325,Tradewinds Court,650000,Flat / Apartment,882,2,2,2,Asher Way,London,E1W 2JB,51.507422,-0.0659346
326,326,Sunnyhill Road,950000,House,1700,4,4,4,,London,SW16 2UW,51.4293187,-0.1222893
327,327,Tantallon Road,625000,Flat / Apartment,663,2,2,2,,London,SW12 8DG,51.4456042,-0.1568215
328,328,Leys Road,4825000,House,10475,7,7,7,Oxshott,Surrey,KT22 0QE,51.3375391,-0.351157
329,329,Lillian Road,1575000,House,1983,4,4,4,Barnes,London,SW13 9JG,51.4869912,-0.236536
330,330,Christchurch Street,2550000,House,1266,3,3,3,,London,SW3 4AR,51.4861972,-0.1636986
331,331,Abercrombie Street,525000,Flat / Apartment,707,2,2,2,Battersea,London,SW11 2JB,51.4712872,-0.1671336
332,332,Rutland Road,775000,Flat / Apartment,967,2,2,2,South Hackney,London,E9 7TT,51.5375115,-0.0453357
333,333,Ruvigny Gardens,3250000,House,2210,3,3,3,Putney,London,SW15 1JR,51.4675462,-0.2184965
334,334,Hazelwood Drive,775000,Bungalow,1459,4,4,4,Pinner,Middlesex,HA5 3TT,51.6000224,-0.4053031
335,335,Roseneath Road,1775000,House,2153,5,5,5,,London,SW11 6AQ,51.4536296,-0.1553469
336,336,Eton Avenue,3250000,House,2543,5,5,5,Hampstead,London,NW3 3HL,51.5450357,-0.1682668
337,337,Drapers Court,700000,Flat / Apartment,797,2,2,2,59 Lurline Gardens,London,SW11 4DF,51.4755706,-0.1529937
338,338,Creffield Road,595000,Flat / Apartment,760,2,2,2,,London,W5 3RP,51.5119907,-0.2856942
339,339,Oakhill Road,525000,Flat / Apartment,540,1,1,1,Putney,London,SW15 2QU,51.4589641,-0.206494
340,340,Conway Road,2450000,House,3007,6,6,6,Wimbledon,London,SW20 8PA,51.414704,-0.2267349
341,341,Henfield Road,550000,House,538,2,2,2,Wimbledon,London,SW19 3HH,51.413007,-0.2068114
342,342,West Side Common,3950000,House,6186,6,6,6,Wimbledon,London,SW19 4UF,51.42545339999999,-0.2287352
343,343,Melody Road,600000,Flat / Apartment,1024,1,1,1,,London,SW18 2QF,51.456544,-0.1836297
344,344,Fullerton Road,1450000,House,1984,5,5,5, Wandsworth,London,SW18 1BX,51.4581118,-0.1867344
345,345,Eaton Row,5750000,House,2896,3,3,3,Belgravia,London,SW1W 0JA,51.4973354,-0.1480225
346,346,Rutland Gardens,7500000,Flat / Apartment,1793,2,2,2,,London,SW7 1BX,51.5011856,-0.1664244
347,347,Park View Court,180000,Flat / Apartment,745,2,2,2, Bow,London,E3 3AN,51.5185146,-0.0225247
348,348,Paxton Close,699950,House,909,3,3,3,Richmond,Surrey,TW9 2AW,51.47350609999999,-0.2921195
349,349,Hardwicke House,665000,Flat / Apartment,935,3,3,3, Richmond,Surrey,TW10 6PW,51.4572144,-0.2984994
350,350,Kersfield House,210000,Studio,328,0,0,0, Putney,London,SW15 3HJ,51.4531605,-0.2180777
351,351,Westminster Close,1550000,House,3112,5,5,5,Northwood,Middlesex,HA6 2TG,51.610746,-0.4371053
352,352,Church Road,865000,House,1292,3,3,3,,Northwood,HA6 1AR,51.6091586,-0.4152512
353,353,Upper Grosvenor Street,18000000,House,8315,7,7,7,Mayfair,London,W1K 2NP,51.5105128,-0.1527769
354,354,Barclay Oval,1100000,House,3153,5,5,5,Woodford Green,Essex,IG8 0PP,51.6160933,0.0270119
355,355,Thornhill Crescent,2850000,House,2857,5,5,5,Islington,London,N1 1BJ,51.541315,-0.1144814
356,356,Ripplevale Grove,1150000,Flat / Apartment,1074,3,3,3,Islington,London,N1 1HT,51.5400848,-0.1123547
357,357,Long & Waterson Apartments,550000,Penthouse,414,1,1,1, Hackney,London,E2 8HN,51.52905,-0.0765554
358,358,Long & Waterson Apartments,690000,New development,596,1,1,1, Hackney,London,E2 8HN,51.52905,-0.0765554
359,359,Ardwick Road,995000,Flat / Apartment,999,2,2,2,Fortune Green,London,NW2 2BX,51.5579044,-0.1967323
360,360,Waynflete House,575000,Penthouse,1029,3,3,3, Esher,Surrey,KT10 9QS,51.3693136,-0.366222
361,361,94 Claygate,334950,Flat / Apartment,477,1,1,1, Claygate,Surrey,KT10 0RB,51.3606218,-0.3460047
362,362,Carlton House,1000000,Penthouse,962,2,2,2,Putney,London,SW15 2FU,51.4595662,-0.2123581
363,363,Queens Road,750000,House,1510,3,3,3,Thames Ditton,Surrey,KT7 0QX,51.3959355,-0.3364388
364,364,Southborough Road,2100000,New development,3596,5,5,5,Surbiton,Surrey,KT6 6JN,51.383349,-0.3028065
365,365,Pavilion Park,1299000,New development,1903,4,4,4, East Molesey,Surrey,KT8 9DX,51.4056693,-0.3577249
366,366,York Avenue,1900000,House,2358,4,4,4,,London,SW14 7LQ,51.459436,-0.2702458
367,367,Sutherland Gardens,1295000,House,1813,4,4,4,East Sheen,London,SW14 8DB,51.4659681,-0.2552995
368,368,Turnstone House,1280000,Flat / Apartment,1169,2,2,2,Star Place,London,E1W 1AE,51.5082719,-0.06948689999999999
369,369,St. Marys Grove,1425000,House,2028,4,4,4, Chiswick,London,W4 3LL,51.4871516,-0.2745415
370,370,Stanton Road,1795000,House,1720,4,4,4,Barnes,London,SW13 0EX,51.47314129999999,-0.2490646
371,371,Afghan Road,1125000,House,1423,4,4,4,Battersea,London,SW11 2QD,51.4690921,-0.1699572
372,372,Old Chesterton Building,945000,Flat / Apartment,1001,2,2,2,110 Battersea Park Road,London,SW11 4LZ,51.4749154,-0.1542153
373,373,Kersley Street,3150000,House,2809,5,5,5,Battersea,London,SW11 4PR,51.4730346,-0.1644429
374,374,Grosvenor Avenue,699950,Flat / Apartment,920,2,2,2,Highbury,London,N5 2NP,51.5492517,-0.0887097
375,375,Speldhurst Road,1275000,House,1420,4,4,4,Chiswick,London,W4 1BY,51.501158,-0.2584371
376,376,Lamont Road,3750000,House,2428,3,3,3,,London,SW10 0HX,51.48275289999999,-0.1804287
377,377,Mortimer Court,460000,Flat / Apartment,431,1,1,1,Abbey Road,London,NW8 9AB,51.532521,-0.1782855
378,378,Cavendish Avenue,6795000,House,4637,6,6,6,St John's Wood,London,NW8 9JE,51.5318668,-0.1726454
379,379,Bangalore Street,1695000,House,2096,4,4,4,Putney,London,SW15 1QD,51.4657159,-0.2217352
380,380,Hilltop,1050000,House,2254,5,5,5,Loughton,Essex,IG10 1PX,51.6531277,0.0671192
381,381,Egerton Crescent,15950000,House,4090,4,4,4,,London,SW3 2ED,51.4957557,-0.1671034
382,382,Cruikshank Street,900000,Flat / Apartment,769,2,2,2,Grays Inn,London,WC1X 9HF,51.530606,-0.1117666
383,383,Gledhow Gardens,6950000,Flat / Apartment,3001,4,4,4,,London,SW5 0AY,51.4915534,-0.1854372
384,384,Elm Bank Mansions,1200000,Flat / Apartment,1155,3,3,3, Barnes,London,SW13 0NS,51.4716056,-0.2534287
385,385,Coleraine Road,399995,Flat / Apartment,990,3,3,3,,Blackheath,SE3 7PE,51.48184579999999,0.0126419
386,386,Queen Anne Road,1100000,House,1607,4,4,4,South Hackney,London,E9 7AH,51.5436213,-0.0444826
387,387,Paintworks,650000,New development,646,2,2,2,Kingsland Road,London,E2 8AG,51.5302653,-0.077524
388,388,West Temple Sheen,2950000,House,3716,5,5,5,East Sheen,London,SW14 7AP,51.4594171,-0.2756878
389,389,Rowditch Lane,600000,House,953,3,3,3,,London,SW11 5BX,51.4718338,-0.1566867
390,390,Holmead Road,2450000,House,2313,4,4,4, Fulham,London,SW6 2JE,51.4797442,-0.1882245
391,391,Huguenot Place,775000,Flat / Apartment,939,2,2,2,,London,SW18 2EN,51.4577521,-0.1832507
392,392,Addison House,625000,Flat / Apartment,652,2,2,2, St John's Wood,London,NW8 9EL,51.5304353,-0.1754276
393,393,Cumberland Terrace Mews,295000,Studio,344,0,0,0,Regent's Park,London,NW1 4HR,51.5322814,-0.1457676
394,394,St. Johns Wood Terrace,2350000,House,1519,4,4,4,St John's Wood,London,NW8 6JJ,51.5340927,-0.1706385
395,395,Wimbolt Street,1999995,House,1935,5,5,5,Shoreditch,London,E2 7BX,51.5295268,-0.0670735
396,396,Belgrave Mews North,2250000,House,1299,3,3,3,,London,SW1X 8RS,51.50019409999999,-0.154808
397,397,Church Road,550000,Flat / Apartment,582,2,2,2,Richmond,Surrey,TW9 1UA,51.4625046,-0.2986771
398,398,St. Augustines Road,499000,Flat / Apartment,451,1,1,1,Camden,London,NW1 9RN,51.5439113,-0.1300507
399,399,St. John's Hill,850000,Flat / Apartment,1339,3,3,3,,London,SW11 1TH,51.4596975,-0.1787972
400,400,Regents Drive,950000,House,1857,4,4,4,Woodford Green,Essex,IG8 8RZ,51.6041322,0.0637089
401,401,Piercing Hill,799999,House,1507,4,4,4, Epping,Essex,CM16 7JN,51.67444339999999,0.09389249999999999
402,402,Bourne Street,2500000,House,1340,3,3,3,,London,SW1W 8JR,51.49228129999999,-0.154854
403,403,Eaton Terrace,6450000,House,3336,5,5,5,Belgravia,London,SW1W 8EZ,51.4941763,-0.1558435
404,404,Palace Court,2250000,Penthouse,1765,2,2,2,,London,W2 4HU,51.511437,-0.1918959
405,405,Iverna Gardens,2500000,Flat / Apartment,1752,3,3,3,,London,W8 6TW,51.4995923,-0.1941371
406,406,City North East Tower,475000,New development,560,1,1,1,3 City North Place,London,N4 3FQ,51.5650961,-0.1075099
407,407,ICON7,560000,New development,657,2,2,2, Holloway,London,N7 0JN,51.5527167,-0.1250736
408,408,ICON7,610000,New development,758,2,2,2, Holloway,London,N7 0JN,51.5527167,-0.1250736
409,409,ICON7,600000,New development,758,2,2,2, Holloway,London,N7 0JN,51.5527167,-0.1250736
410,410,Octavia House,615000,Flat / Apartment,797,1,1,1,Imperial Wharf,Fulham,SW6 2FH,51.47394449999999,-0.1830254
411,411,Gloucester House,625000,Flat / Apartment,960,2,2,2, Sheen Road,Richmond,TW10 5BB,51.4608528,-0.2852931
412,412,Entwistle Terrace,600000,Flat / Apartment,658,1,1,1,St. Peters Square,London,W6 9AW,51.4930803,-0.245002
413,413,Rutherford House,650000,Flat / Apartment,848,2,2,2, Battersea,London,SW11 4BT,51.4722289,-0.1641008
414,414,Evelyn Road,1285000,House,1476,3,3,3,Richmond,Surrey,TW9 2TF,51.4668159,-0.2989488
415,415,Oakford Road,1795000,House,1824,5,5,5,Kentish Town,London,NW5 1AJ,51.5561629,-0.1398914
416,416,Walham Grove,825000,Flat / Apartment,843,2,2,2,Fulham,London,SW6 1QR,51.48211149999999,-0.1977083
417,417,Killieser Avenue,2350000,House,3180,6,6,6,,London,SW2 4NX,51.4401337,-0.1288246
418,418,Underwood Street,2350000,Flat / Apartment,2577,3,3,3,Old Street,London,N1 7LG,51.52996839999999,-0.09182449999999999
419,419,Emperors Gate,2500000,Flat / Apartment,1498,2,2,2,,London,SW7 4JA,51.4960465,-0.1869731
420,420,Stapleton Road,675000,Flat / Apartment,946,3,3,3,,London,SW17 8AY,51.43414060000001,-0.1569663
421,421,Stokesheath Road,4650000,House,7996,6,6,6,Oxshott,Surrey,KT22 0PN,51.3439892,-0.3564537
422,422,Tile Kiln Lane,1695000,House,6356,6,6,6, Uxbridge,Middlesex,UB9 6LU,51.5768131,-0.4455432
423,423,Old Town,1050000,Flat / Apartment,976,2,2,2,,The Metal Works,SW4 0JT,51.4654,-0.1410513
424,424,Atina Court,1200000,Flat / Apartment,932,2,2,2, Belsize Park,London,NW3 4UR,51.5471408,-0.164865
425,425,Fulham Palace Road,625000,Flat / Apartment,663,2,2,2,,London,SW6 6TA,51.4745219,-0.2135881
426,426,Cottimore Avenue,649950,House,1378,4,4,4,Walton-on-Thames,Surrey,KT12 2AE,51.3856519,-0.4085983
427,427,Voltaire Buildings,450000,Flat / Apartment,600,2,2,2,330 Garratt Lane,London,SW18 4FR,51.4432289,-0.1896551
428,428,Chipstead Street,3450000,House,3070,5,5,5,Fulham,London,SW6 3SR,51.47325860000001,-0.1945147
429,429,Cambridge Street,995000,Flat / Apartment,908,2,2,2,Pimlico,London,SW1V 4QE,51.4881891,-0.1400243
430,430,Arthur Road,795000,Flat / Apartment,1536,3,3,3,Wimbledon,London,SW19 7DN,51.4306385,-0.2065961
431,431,Cromwell Road,1775000,House,2336,5,5,5,Wimbledon,London,SW19 8LF,51.4257883,-0.196429
432,432,Burwood Park Road,1295000,House,2371,5,5,5, Walton-on-Thames,Surrey,KT12 5LJ,51.371711,-0.4130468
433,433,Forge Lane,975000,House,1201,3,3,3,Richmond,Surrey,TW10 7BF,51.4452288,-0.3023266
434,434,High Oaks Close,1100000,House,3185,5,5,5,Coulsdon,Surrey,CR5 3EZ,51.30619919999999,-0.1518089
435,435,Roskell Road,549950,Flat / Apartment,730,1,1,1,Putney,London,SW15 1DS,51.4674096,-0.2225332
436,436,Cautley Avenue,295000,Studio,277,0,0,0,,London,SW4 9HU,51.4547003,-0.1428531
437,437,Clarendon Gardens,2600000,Flat / Apartment,1779,3,3,3,Little Venice,London,W9 1AZ,51.524384,-0.1806863
438,438,Turpins Lane,700000,House,1441,4,4,4,Woodford Green,Essex,IG8 8AZ,51.6098153,0.06219010000000001
439,439,Pavilion Road,3950000,House,1917,1,1,1,Knightsbridge,London,SW1X 0AX,51.4956106,-0.1595601
440,440,Islington,1500000,House,1666,3,3,3,,London,N7 8LS,51.5473765,-0.1072499
441,441,Elwood Street,1350000,House,1629,4,4,4,Highbury,London,N5 1EH,51.5586553,-0.101819
442,442,Northchurch Road,900000,Flat / Apartment,1069,2,2,2,,London,N1 3NU,51.54200909999999,-0.0868355
443,443,Ellington Street,2750000,House,2500,5,5,5,Islington,London,N7 8PN,51.5457329,-0.1107219
444,444,Tollington Way,699500,New development,990,2,2,2, London,N7 6QX,N7 6RG,51.56172840000001,-0.1228995
445,445,Well Walk,799950,Flat / Apartment,770,2,2,2,Hampstead,London,NW3 1LD,51.5580589,-0.1741633
446,446,Irene Road,2895000,House,2730,5,5,5, Fulham,London,SW6 4AL,51.47488269999999,-0.1977914
447,447,Melbourne Mansions,799950,Flat / Apartment,940,3,3,3,Queens Club Gardens,London,W14 9SF,51.4862511,-0.2114158
448,448,Wandsworth Bridge Road,2250000,House,2949,6,6,6,Fulham,London,SW6 2TB,51.4748562,-0.1919748
449,449,Trystings Close,1125000,House,2495,5,5,5, Esher,Surrey,KT10 0TF,51.3608019,-0.3301833
450,450,Lillie Square East,2020000,New development,1262,3,3,3, Earls Court,London,SW6 1UE,51.4862657,-0.1982647
451,451,Graveney Road,975000,House,1308,4,4,4,Tooting,London,SW17 0EG,51.4292677,-0.1691027
452,452,Louisville Road,1595000,House,2790,6,6,6,,London,SW17 8RN,51.4343864,-0.1542948
453,453,Merino Court,850000,Flat / Apartment,978,3,3,3, Clerkenwell,London,EC1V 8BG,51.5278301,-0.09194279999999999
454,454,Westville Road,570000,Flat / Apartment,682,2,2,2,,London,W12 9BD,51.5018938,-0.2384533
455,455,North Road,2400000,House,2411,4,4,4,Highgate,London,N6 4AA,51.5743419,-0.1493237
456,456,Jubilee Court,475000,Flat / Apartment,496,1,1,1, Greenwich,London,SE10 9FJ,51.4826302,-0.0149185
457,457,Onslow Road,800000,Flat / Apartment,734,2,2,2,Richmond,Surrey,TW10 6QH,51.4565666,-0.2984803
458,458,Old Oak Avenue,950000,House,3006,5,5,5, Coulsdon,Surrey,CR5 3PG,51.3060638,-0.1741385
459,459,Roehampton High Street,1200000,House,1934,4,4,4,Putney,London,SW15 4HH,51.4513341,-0.2370605
460,460,Arthur Road,3250000,House,4370,6,6,6,Wimbledon,London,SW19 7DP,51.4319147,-0.2036113
461,461,Gibson Square,2375000,House,2153,3,3,3,Islington,London,N1 0RD,51.5381055,-0.1061638
462,462,Eamont Court,650000,Flat / Apartment,595,2,2,2,Shannon Place,London,NW8 7DN,51.53467310000001,-0.1663472
463,463,Disraeli Road,1295000,House,876,4,4,4,Putney,London,SW15 2DS,51.4611276,-0.2144997
464,464,Quill Lane,1000000,House,905,2,2,2,Putney,London,SW15 1PD,51.4637173,-0.2198117
465,465,York Mansions,1885000,Flat / Apartment,1675,4,4,4,Prince of Wales Drive,London,SW11 4DL,51.4759378,-0.1534685
466,466,Thornton Hill,635000,Flat / Apartment,797,2,2,2,,London,SW19 4HS,51.4185231,-0.2158865
467,467,Montem Terrace,3495000,New development,4420,6,6,6, Wimbledon,London,SW20 8TG,51.4169704,-0.2285312
468,468,Ballantine Street,1200000,House,1378,3,3,3, Wandsworth,London,SW18 1AL,51.4603849,-0.1866011
469,469,Freshford Street,1200000,House,1751,4,4,4, Wandsworth,London,SW18 3TF,51.43639049999999,-0.1853356
470,470,Swanage Road,1600000,House,2330,5,5,5,Wandsworth,London,SW18 2DZ,51.4525326,-0.1830117
471,471,Arlesey Close,799000,House,1214,3,3,3,Putney,London,SW15 2EX,51.4562176,-0.2150942
472,472,Disraeli Road,850000,Flat / Apartment,876,2,2,2,Putney,London,SW15 2DZ,51.46069600000001,-0.2097803
473,473,Chestnut Court,500000,Flat / Apartment,872,2,2,2, Northwood,Middlesex,HA6 3NL,51.6127419,-0.4169029
474,474,Montagu Mews North,2500000,House,1323,3,3,3,Marylebone,London,W1H 2JR,51.5194065,-0.1596383
475,475,Albion Street,3950000,House,2547,4,4,4,Hyde Park,London,W2 2AS,51.5136327,-0.1670773
476,476,Eaton Row,2995000,House,1393,3,3,3,,London,SW1W 0JA,51.4973354,-0.1480225
477,477,Redcliffe Gardens,995000,Flat / Apartment,888,1,1,1,,London,SW10 9JJ,51.4871537,-0.187614
478,478,Gerrard Road,2250000,House,1857,4,4,4,,London,N1 8BA,51.5338789,-0.1006006
479,479,New North Road,749950,Flat / Apartment,855,2,2,2,,London,N1 6JB,51.5302884,-0.0849771
480,480,ICON7,420000,New development,538,1,1,1, Holloway,London,N7 0JN,51.5527167,-0.1250736
481,481,Richmond Road,424995,Flat / Apartment,422,1,1,1,Hackney,London,E8 3AA,51.5433303,-0.0665318
482,482,The Pryors,2150000,Flat / Apartment,2074,4,4,4,East Heath Road,London,NW3 1BP,51.5596858,-0.1712272
483,483,Bishops Road,1500000,House,1645,3,3,3,Fulham,London,SW6 7AB,51.4796865,-0.2031756
484,484,Gosberton Road,1575000,House,2115,4,4,4,,London,SW12 8LQ,51.4455462,-0.1594286
485,485,Hearnville Road,1500000,House,2242,5,5,5,,London,SW12 8RR,51.44505059999999,-0.1564984
486,486,Discovery Dock Apartments West,550000,Flat / Apartment,600,1,1,1, Canary Wharf,London,E14 9RT,51.501432,-0.0190286
487,487,Wilmington Square,475000,Flat / Apartment,381,1,1,1,Clerkenwell,London,WC1X 0EG,51.5270561,-0.110789
488,488,Nevill Court,595000,Flat / Apartment,791,2,2,2,Edith Terrace,London,SW10 0TL,51.4818827,-0.183459
489,489,Ferry Road,2250000,House,2937,6,6,6,Barnes,London,SW13 9PR,51.4787231,-0.2410744
490,490,Waldemar Avenue,755000,Flat / Apartment,907,3,3,3,,London,SW6 5LN,51.4737257,-0.210912
491,491,Battersea Church Road,900000,Flat / Apartment,1218,3,3,3,Battersea,London,SW11 3ND,51.475694,-0.1752373
492,492,Buckingham Gate,1990000,Flat / Apartment,1560,2,2,2,St. James's,London,SW1E 6LB,51.4996065,-0.1403806
493,493,South Park Road,1195000,House,1464,3,3,3,Wimbledon,London,SW19 8SZ,51.4205902,-0.194663
494,494,Garratt Lane,450000,Flat / Apartment,696,2,2,2,,London,SW18 4EE,51.4500155,-0.1900487
495,495,Cadogan Terrace,325000,Flat / Apartment,339,1,1,1,Victoria Park,London,E9 5HP,51.5408348,-0.0278878
496,496,Hassett Road,1150000,House,1541,4,4,4,,London,E9 5SL,51.54639969999999,-0.0390702
497,497,Sterling House,850000,Flat / Apartment,1456,2,2,2, Putney,London,SW15 6AR,51.4602715,-0.2185206
498,498,Boatman's Court,879000,New development,1004,2,2,2, Putney,London,SW15 1PP,51.4647006,-0.2164622
499,499,Comyn Road,1295000,House,1875,5,5,5,,London,SW11 1QB,51.46134619999999,-0.1691727
500,500,Hightrees House,575000,Flat / Apartment,695,2,2,2,Nightingale Lane,London,SW12 8AH,51.45331210000001,-0.1517469
501,501,Green Street,4100000,Flat / Apartment,1496,2,2,2,Mayfair,London,W1K 6RG,51.5130373,-0.15377
502,502,Morton Road,1800000,House,1919,3,3,3,Islington,London,N1 3BD,51.5403982,-0.0911717
503,503,Highbury Gardens,649950,Flat / Apartment,804,2,2,2,52 Holloway Road,London,N7 8BW,51.5485635,-0.1066958
504,504,Crediton Hill,899950,Flat / Apartment,1143,2,2,2,West Hampstead,London,NW6 1HR,51.55175999999999,-0.1889841
505,505,Moore Park Road,1999950,New development,1848,3,3,3,,London,SW6 4PS,51.4785416,-0.1947959
506,506,Southborough Road,1995000,New development,3510,5,5,5,Surbiton,Surrey,KT6 6JN,51.383349,-0.3028065
507,507,Queen's Gate Gardens,1595000,Flat / Apartment,1170,2,2,2,Kensington,London,SW7 5RR,51.495863,-0.1809295
508,508,United House,499000,New development,690,2,2,2,Mayflower Street,London,SE16 4JL,51.5000909,-0.0554822
509,509,Three Riverside,3410000,Penthouse,2852,4,4,4,Riverside Quarter,London,SW18 1PP,51.46225519999999,-0.2006065
510,510,Onslow Gardens,6750000,Flat / Apartment,2823,5,5,5,,London,SW7 3QB,51.491101,-0.1782958
511,511,Ensor Mews,2850000,House,1724,3,3,3,,London,SW7 3BT,51.48999509999999,-0.178311
512,512,Roland Gardens,1895000,Flat / Apartment,1474,3,3,3,,London,SW7 3PE,51.4902252,-0.1809668
513,513,Wardo Avenue,1650000,House,1756,4,4,4,Fulham,London,SW6 6RB,51.4762078,-0.2138678
514,514,Kinnoul Road,1225000,House,1806,4,4,4,Fulham,London,W6 8NQ,51.4853351,-0.2120854
515,515,Stanlake Road,1100000,House,2145,5,5,5,,London,W12 7HG,51.5082734,-0.2279612
516,516,Spencer Hill,1095000,House,950,2,2,2,Wimbledon,London,SW19 4PA,51.4194366,-0.2144558
517,517,Kingston Hill,2395000,House,3498,5,5,5,Kingston upon Thames,Surrey,KT2 7LN,51.4244665,-0.2753064
518,518,Upton Court,550000,Flat / Apartment,904,2,2,2, Wimbledon,London,SW20 8JB,51.4181968,-0.2246005
519,519,Earlsfield Road,1500000,House,2583,5,5,5, Wandsworth,London,SW18 3DA,51.4496092,-0.1818036
520,520,Dempster Road,750000,Flat / Apartment,911,2,2,2, Wandsworth,London,SW18 1AS,51.4591241,-0.1847365
521,521,Atheldene Road,1150000,House,1822,5,5,5, Wandsworth,London,SW18 3BN,51.44594490000001,-0.1879215
522,522,Townshend Court,665000,Flat / Apartment,647,2,2,2,Shannon Place,London,NW8 7DP,51.5349209,-0.1660921
523,523,Hamilton Terrace,1250000,Flat / Apartment,1036,2,2,2,St. John's Wood,London,NW8 9UJ,51.5285573,-0.178415
524,524,St. Johns Road,1895000,House,2564,5,5,5,Richmond,Surrey,TW9 2PE,51.4645544,-0.2992631
525,525,James House,600000,Flat / Apartment,632,2,2,2,70 Webb's Road,London,SW11 6SE,51.45516259999999,-0.1619208
526,526,Broomwood Road,700000,Flat / Apartment,946,2,2,2,,London,SW11 6JX,51.4555312,-0.1567529
527,527,Bolingbroke Grove,2450000,House,3020,6,6,6,Clapham,London,SW11 6ES,51.4488292,-0.1634847
528,528,Lowndes Square,1750000,Flat / Apartment,853,2,2,2,,London,SW1X 9HA,51.50079390000001,-0.1580689
529,529,Eagle Wharf Road,895000,New development,1033,3,3,3,Islington,London,N1 7EG,51.53431519999999,-0.0909217
530,530,Youngs Court,1000000,Flat / Apartment,884,1,1,1, Hampstead,London,NW3 1DD,51.558664,-0.1778034
531,531,Moore Park Road,2300000,House,2124,4,4,4,Fulham,London,SW6 2HH,51.4789116,-0.1919586
532,532,Montpellier Road,375000,Flat / Apartment,444,1,1,1,Ealing,London,W5 2QS,51.5221273,-0.3056525
533,533,Esher Place Avenue,2150000,House,3177,5,5,5,Esher,Surrey,KT10 8PY,51.3720902,-0.3692985
534,534,Common Road,785000,New development,1474,3,3,3, Esher,Surrey,KT10 0HG,51.3598167,-0.3342553
535,535,Bolander Grove,725000,New development,591,1,1,1,,London,SW6 1EY,51.4860762,-0.1958812
536,536,Sheen Road,2850000,House,5130,7,7,7,Richmond,Surrey,TW10 5AL,51.4620256,-0.2873941
537,537,Birds Hill Drive,5950000,New development,11716,6,6,6,Oxshott,Surrey,KT22 0SW,51.33343250000001,-0.3558406
538,538,Ashley Gardens,985000,Flat / Apartment,1140,2,2,2,Thirleby Road,London,SW1P 1HN,51.4958829,-0.1375068
539,539,St. Ann's Crescent,585000,Flat / Apartment,795,2,2,2,,London,SW18 2ND,51.4552918,-0.1881416
540,540,Herndon Road,995000,House,1993,5,5,5,Wandsworth,London,SW18 2DG,51.4567142,-0.1870776
541,541,Claremont Court,550000,Flat / Apartment,666,2,2,2, Shoreditch,London,E2 6DE,51.5305555,-0.0629352
542,542,Eaton Square,7300000,Flat / Apartment,2230,3,3,3,Belgravia,London,SW1W 9DH,51.4953797,-0.1511704
543,543,Elsworthy Terrace,1250000,Flat / Apartment,885,2,2,2,Primrose Hill,London,NW3 3DR,51.5406717,-0.1652263
544,544,Radnor Mews,3750000,House,2396,4,4,4,Hyde Park Estate,London,W2 2SA,51.5150381,-0.1718492
545,545,Thornton Place,430000,Studio,514,1,1,1,Clapham Common North Side,London,SW4 0AB,51.4616214,-0.149468
546,546,Thornton Place,830000,Flat / Apartment,891,2,2,2,Clapham Common North Side,London,SW4 0AB,51.4616214,-0.149468
547,547,Pearson Square,1100000,Flat / Apartment,635,1,1,1,Fitzrovia,London,W1T 3BJ,51.5196501,-0.1380359
548,548,John Adam Street,3100000,New development,1410,3,3,3,Covent Garden,London,WC2N 6LU,51.5089627,-0.1231099
549,549,Vicarage Gate,925000,Flat / Apartment,706,1,1,1,,London,W8 4HH,51.5049658,-0.1921234
550,550,Pyrland Road,2650000,House,3319,6,6,6,Highbury,London,N5 2JA,51.5505821,-0.0892309
551,551,Elwood House,450000,Flat / Apartment,569,2,2,2,Hurlock Street,London,N5 1EU,51.5594288,-0.1007192
552,552,Dalston Square,650000,Flat / Apartment,720,2,2,2,Hackney,London,E8 3GT,51.54512219999999,-0.07486419999999999
553,553,Lyncroft Mansions,799950,Flat / Apartment,956,2,2,2, West Hampstead,London,NW6 1JY,51.5537838,-0.191933
554,554,Chelsea Vista,1250000,Penthouse,1209,2,2,2, Fulham,London,SW6 2SD,51.47373409999999,-0.1822129
555,555,Ashburnham Park,2995000,House,5614,6,6,6,Esher,Surrey,KT10 9TW,51.3712755,-0.3586093
556,556,Claremont Drive,2250000,House,3661,4,4,4,Esher,Surrey,KT10 9LU,51.3608026,-0.3665678
557,557,Sandown Road,2995000,House,7087,7,7,7,Esher,Surrey,KT10 9TT,51.37070629999999,-0.3590606
558,558,Pavilion Park,1100000,New development,1629,3,3,3, East Molesey,Surrey,KT8 9DX,51.4056693,-0.3577249
559,559,Berwyn Road,3350000,House,3770,6,6,6,Richmond,Surrey,TW10 5BP,51.4620427,-0.2793462
560,560,St John Street,775000,Flat / Apartment,810,1,1,1,Clerkenwell,London,EC1V 4LD,51.5302206,-0.1057127
561,561,Meon Road,800000,House,1080,3,3,3,Acton,London,W3 8AN,51.503788,-0.2678324
562,562,Beverley Close,1850000,House,1735,4,4,4,Barnes,London,SW13 0EH,51.4722199,-0.2445786
563,563,Cambridge Road,1500000,House,1108,3,3,3,Barnes,London,SW13 0PG,51.4707762,-0.248464
564,564,Davisville Road,1695000,House,2147,5,5,5,,London,W12 9SJ,51.5026169,-0.2398951
565,565,Fladgate House,750000,Flat / Apartment,686,1,1,1, Battersea,London,SW11 8EU,51.4820037,-0.1463681
566,566,York Mansions,1985000,Flat / Apartment,1492,3,3,3, Battersea,London,SW11 4BW,51.4760905,-0.1528863
567,567,Hamilton Terrace,1100000,Flat / Apartment,1125,2,2,2,St. John's Wood,London,NW8 9UJ,51.5285573,-0.178415
568,568,Seward Street,650000,Flat / Apartment,674,2,2,2,Clerkenwell,London,EC1V 3PA,51.52640599999999,-0.09782669999999999
569,569,Bloomfield Terrace,4500000,House,2145,3,3,3,Belgravia,London,SW1W 8PG,51.4900655,-0.1529124
570,570,Westbourne Park Road,4750000,New development,2552,4,4,4,Notting Hill,London,W2 5PH,51.5181562,-0.1908369
571,571,Scotland Road,995000,House,1706,5,5,5,Buckhurst Hill,Essex,IG9 5NP,51.6283851,0.0410985
572,572,Hampstead Lane,2150000,House,2172,3,3,3,Highgate,London,N6 4RT,51.5715593,-0.1530732
573,573,Corfton Road,695000,Flat / Apartment,964,2,2,2,Ealing,London,W5 2HT,51.5211674,-0.2971116
574,574,Barton Road,575000,Flat / Apartment,573,2,2,2,,London,W14 9HA,51.4895341,-0.2096884
575,575,Bramham Gardens,1950000,Flat / Apartment,966,2,2,2,,London,SW5 0HQ,51.49175349999999,-0.1890738
576,576,Stonehill Road,2000000,House,2365,4,4,4,,London,SW14 8RW,51.4586075,-0.2652965
577,577,Teal Court,1100000,Flat / Apartment,816,2,2,2,Star Place,London,E1W 1AB,51.5080423,-0.06919399999999999
578,578,Louisville Road,1550000,House,2500,5,5,5,,London,SW17 8RL,51.43588769999999,-0.1565507
579,579,HKR,649999,New development,569,1,1,1,211-227 Hackney Road,London,E2 8NA,51.5312776,-0.0685421
580,580,St. Albans Avenue,1500000,House,1868,5,5,5,Chiswick,London,W4 5JR,51.49899620000001,-0.2618333
581,581,The Lindens,725000,House,960,3,3,3,Hartington Road,London,W4 3UQ,51.4788577,-0.2713117
582,582,Shorrolds Road,785000,Flat / Apartment,739,2,2,2,,London,SW6 7TP,51.4812634,-0.2010398
583,583,Wetherell Road,400000,Flat / Apartment,491,1,1,1,South Hackney,London,E9 7DS,51.5374134,-0.04268660000000001
584,584,Wieland Road,1395000,House,2141,4,4,4,Northwood,Middlesex,HA6 3RD,51.6116982,-0.40888
585,585,Ravenswood Park,799950,House,1519,4,4,4,Northwood,Middlesex,HA6 3PS,51.61309439999999,-0.411041
586,586,Grove Lane,975000,Bungalow,2169,3,3,3,Chigwell,Essex,IG7 6JD,51.6185428,0.1050135
587,587,Cadogan Place,4750000,House,2157,4,4,4,Belgravia,London,SW1X 9RP,51.4944946,-0.1572136
588,588,Highbury New Park,899950,Flat / Apartment,947,2,2,2,,London,N5 2ET,51.5514209,-0.0921384
589,589,Offord Road,925000,Flat / Apartment,931,2,2,2,Islington,London,N1 1EA,51.5430592,-0.1144525
590,590,Linver Road,1800000,House,1776,5,5,5,Fulham,London,SW6 3RB,51.47155129999999,-0.2016232
591,591,Perrymead Street,2950000,House,3144,6,6,6,Fulham,London,SW6 3SW,51.47440830000001,-0.1944261
592,592,Doulton House,795000,New development,825,2,2,2, Fulham,London,SW6 2FS,51.47524749999999,-0.1841256
593,593,Regal House,795000,Flat / Apartment,798,2,2,2, Imperial Wharf,London,SW6 2GZ,51.4726897,-0.1827152
594,594,Fitzroy House,499999,Flat / Apartment,452,1,1,1, Longfield Avenue,London,W5 2QY,51.5140033,-0.3082448
595,595,Herne Road,1450000,House,2523,4,4,4,Surbiton,Surrey,KT6 5BX,51.37871879999999,-0.304745
596,596,Columbia Gardens,780000,New development,558,1,1,1,,London,SW6 1FU,51.4864064,-0.1951336
597,597,Cleveley Court,398000,New development,461,1,1,1,Ashton Reach,London,SE16 7EP,51.49153339999999,-0.0362838
598,598,Amelia Street,570000,Flat / Apartment,680,2,2,2,,London,SE17 3BZ,51.4899352,-0.0980636
599,599,Alston Road,625000,House,1007,2,2,2,,London,SW17 0TR,51.4283108,-0.1781032
600,600,Thorne Street,1150000,House,1259,3,3,3,Barnes,London,SW13 0PT,51.4698742,-0.2537107
601,601,Seward Street,655000,Flat / Apartment,703,2,2,2,Clerkenwell,London,EC1V 3PA,51.52640599999999,-0.09782669999999999
602,602,Hamond Square,375000,Flat / Apartment,482,1,1,1,Hoxton,London,N1 5JQ,51.53423910000001,-0.0807594
603,603,Oppidans Road,2395000,House,2221,4,4,4,Primrose Hill,London,NW3 3AG,51.5414957,-0.1598429
604,604,Cairns Road,670000,Flat / Apartment,614,2,2,2,,London,SW11 1ES,51.4595207,-0.1674463
605,605,Broomwood Road,1450000,House,1792,5,5,5,,London,SW11 6JZ,51.45507749999999,-0.1587863
606,606,Cleveland Street,1750000,Flat / Apartment,2203,3,3,3,Fitzrovia,London,W1T 6NG,51.5221174,-0.1405155
607,607,Kinnerton Street,2250000,House,1673,3,3,3,,London,SW1X 8EA,51.5000232,-0.1570914
608,608,Liverpool Road,1295000,Penthouse,1424,3,3,3,,London,N1 1LA,51.5397273,-0.106356
609,609,Palewell Park,1750000,House,2435,4,4,4,,London,SW14 8JH,51.4616248,-0.2650094
610,610,Gaskarth Road,700000,Flat / Apartment,707,2,2,2,,London,SW12 9NL,51.4511791,-0.1459464
611,611,Grange Road,2100000,House,2137,5,5,5,Barnes,London,SW13 9RE,51.4749562,-0.2441424
612,612,Latchmere Road,775000,House,1414,4,4,4,Battersea,London,SW11 2DT,51.4700505,-0.1645338
613,613,Killarney Road,1575000,House,2379,5,5,5,Wandsworth,London,SW18 2DX,51.4533171,-0.183729
614,614,Grove House,650000,Flat / Apartment,1091,3,3,3,27 Frampton Park Road,London,E9 7PQ,51.5415339,-0.05253269999999999
615,615,Holland Park Villas,8750000,New development,2755,3,3,3,6 Campden Hill,London,W8 7AD,51.5040949,-0.198642
616,616,Portland Terrace,775000,Flat / Apartment,705,2,2,2, Richmond,Surrey,TW9 1QQ,51.4626739,-0.3060272
617,617,Eastbury Road,975000,House,1200,3,3,3,Northwood,Middlesex,HA6 3AJ,51.6151963,-0.422884
618,618,Hidcote Apartments,699999,New development,878,2,2,2,5 Danvers Avenue,London,SW11 1AN,51.4612983,-0.1718667
619,619,Stonehill Road,2250000,House,2344,5,5,5,,London,SW14 8RW,51.4586075,-0.2652965
620,620,Palewell Park,1750000,House,2540,5,5,5,East Sheen,London,SW14 8JQ,51.4637487,-0.2633021
621,621,Burnaby Crescent,1380000,House,1737,5,5,5,Chiswick,London,W4 3LH,51.486281,-0.2722122
622,622,Chatsworth Place,1595000,House,3069,5,5,5,Oxshott,Surrey,KT22 0SS,51.335397,-0.3574213
623,623,Castelnau,5500000,House,4666,7,7,7,Barnes,London,SW13 9EL,51.4820049,-0.2368435
624,624,Denmark Avenue,3050000,House,3717,5,5,5,Wimbledon,London,SW19 4HF,51.4189911,-0.2159114
625,625,Thornton Hill,2350000,House,3594,5,5,5,Wimbledon,London,SW19 4HU,51.4180897,-0.2163636
626,626,Abernethy House,1600000,New development,1018,2,2,2,Barts Square,City Of London,EC1A 7BD,51.518864,-0.0985591
627,627,Cadogan Gardens,6950000,Flat / Apartment,1840,3,3,3,,London,SW3 2RJ,51.4937069,-0.1591614
628,628,Egerton Place,5250000,Flat / Apartment,2026,3,3,3,Knightsbridge,London,SW3 2EF,51.4967389,-0.1667182
629,629,Lowndes Square,3375000,Flat / Apartment,913,2,2,2,Knightsbridge,London,SW1X 9HD,51.4998368,-0.1578193
630,630,Lancaster Close,1700000,Flat / Apartment,1138,3,3,3,13-15 St. Petersburgh Place,London,W2 4JZ,51.5110123,-0.1911777
631,631,Maddox Street,4650000,Penthouse,2231,4,4,4,Mayfair,London,W1S 1NR,51.5135581,-0.1417579
632,632,New Hereford House,2100000,Flat / Apartment,1074,2,2,2, Mayfair,London,W1K 7JB,51.5134958,-0.156043
633,633,Trevor Street,7950000,House,3247,4,4,4,,London,SW7 1DX,51.5010735,-0.1650025
634,634,Carriage House,390000,New development,506,1,1,1,2  City North Place,London,N4 3FS,51.5647794,-0.1073932
635,635,Rosaville Road,1650000,House,1684,4,4,4,,London,SW6 7BN,51.479836,-0.2064821
636,636,Barkston Gardens,2000000,Flat / Apartment,1997,4,4,4,Earl's Court,London,SW5 0ER,51.492182,-0.1900364
637,637,Upper Richmond Road West,1225000,House,1633,4,4,4,Richmond,Surrey,TW10 5DY,51.4642723,-0.2793056
638,638,Calbourne Road,1585000,House,2055,4,4,4,,London,SW12 8LW,51.4468569,-0.1575626
639,639,Trinity Road,4250000,House,4774,7,7,7,Wandsworth,London,SW18 3SN,51.4478415,-0.1722169
640,640,Fulham Road,3950000,House,2815,4,4,4,,London,SW10 9UG,51.4826093,-0.1868292
641,641,Queens Ride,6500000,House,5196,6,6,6,,London,SW13 0JF,51.4676572,-0.2335666
642,642,1 Eastfields Avenue,985000,Flat / Apartment,1295,3,3,3,Putney,London,SW18 1FQ,51.4618665,-0.1981313
643,643,Charlwood Place,1500000,Flat / Apartment,1275,3,3,3,Pimlico,London,SW1V 2LX,51.4912463,-0.1383009
644,644,Buckingham Gate,465000,Flat / Apartment,543,1,1,1,,London,SW1E 6PA,51.499004,-0.1386762
645,645,Effra Road,950000,House,1357,3,3,3,Wimbledon,London,SW19 8PR,51.4226998,-0.1915018
646,646,Kingholme House,699950,Flat / Apartment,786,2,2,2, Wimbledon,London,SW19 4RD,51.41884229999999,-0.2274376
647,647,East Hill,725000,Flat / Apartment,1134,2,2,2,Wandsworth,London,SW18 2QE,51.4575311,-0.1846557
648,648,Townshend Court,465000,Flat / Apartment,473,1,1,1,Shannon Place,London,NW8 7DP,51.5349209,-0.1660921
649,649,Mortimer Court,500000,Flat / Apartment,451,1,1,1,Abbey Road,London,NW8 9AB,51.532521,-0.1782855
650,650,Rutland Gate,5750000,Flat / Apartment,2524,3,3,3,Knightsbridge,London,SW7 1PJ,51.5001016,-0.1689893
651,651,Chevalier House,5450000,Flat / Apartment,1650,2,2,2,60 Brompton Road,London,SW3 1BW,51.50063189999999,-0.1626428
652,652,Queens Road,775000,House,1169,3,3,3,,Twickenham,TW1 4ET,51.4464783,-0.329825
653,653,Church Road,550000,Flat / Apartment,676,2,2,2,Richmond,Surrey,TW10 6LN,51.4602131,-0.296934
654,654,High Road,1500000,House,4023,7,7,7, Coulsdon,Surrey,CR5 3QN,51.3009022,-0.1666685
655,655,Eastfields Avenue,775000,Flat / Apartment,820,2,2,2,Putney,London,SW18 1GN,51.4619831,-0.1975221
656,656,Ormonde Court,699950,Penthouse,907,2,2,2, Putney,London,SW15 6TR,51.4630936,-0.2261272
657,657,Sisters Avenue,1550000,House,2052,4,4,4,,London,SW11 5SW,51.4623933,-0.157945
658,658,Crockerton Road,1850000,House,3247,7,7,7,,London,SW17 7HG,51.4384379,-0.1654842
659,659,Pullman Court,249999,Flat / Apartment,458,1,1,1,Streatham Hill,London,SW2 4ST,51.4432422,-0.1241359
660,660,Clifton Road,3300000,House,3448,4,4,4,Little Venice,London,W9 1SZ,51.5256587,-0.1788047
661,661,Pearson Square,1600000,Flat / Apartment,1402,2,2,2,Fitzrovia,London,W1T 3BJ,51.5196501,-0.1380359
662,662,Portland Chambers,1790000,Penthouse,890,2,2,2, Fitzrovia,London,W1W 6RP,51.51982959999999,-0.141416
663,663,Bryanston Court,4950000,Flat / Apartment,2817,6,6,6, Marylebone,London,W1H 7HB,51.5161755,-0.1611955
664,664,Green Street,2250000,Flat / Apartment,987,2,2,2,,London,W1K 6RG,51.5130373,-0.15377
665,665,Green Street,2650000,Flat / Apartment,1027,2,2,2,Mayfair,London,W1K 6RG,51.5130373,-0.15377
666,666,Whitehall Lane,1000000,House,2000,4,4,4,Buckhurst Hill,Essex,IG9 5JG,51.6244351,0.0266902
667,667,Baldwins Hill,1250000,House,2244,4,4,4,Loughton,Essex,IG10 1SD,51.6574884,0.0610284
668,668,Bishops Gate,990000,New development,820,2,2,2,82-88 Fulham High Street,London,SW6 3LF,51.4698561,-0.2107322
669,669,Barts Square,1650000,New development,1259,3,3,3, Smithfield Market,London,EC1A 9DS,51.5186016,-0.1001267
670,670,Cubitt Building,765000,New development,618,1,1,1,10 Gatliff Road,London,SW1W 8QL,51.4864482,-0.1487806
671,671,Gainsborough Studios West,1100000,Flat / Apartment,1095,2,2,2, Shoreditch,London,N1 5EA,51.5358145,-0.08911419999999999
672,672,Middleton Road,474950,Flat / Apartment,540,1,1,1,Hackney,London,E8 4BS,51.5404223,-0.07287049999999999
673,673,Pond Street,2450000,Penthouse,1879,3,3,3,Hampstead,London,NW3 2PS,51.5539432,-0.1651249
674,674,Clark House,650000,Flat / Apartment,668,1,1,1, Hampstead,London,NW3 7AT,51.4660672,-0.141822
675,675,Corfton Road,499950,Flat / Apartment,603,1,1,1,,London,W5 2HT,51.5211674,-0.2971116
676,676,Corfton Road,449950,Flat / Apartment,539,1,1,1,,London,W5 2HT,51.5211674,-0.2971116
677,677,Manor Road South,1349950,House,2986,5,5,5,Esher,Surrey,KT10 0QQ,51.37023079999999,-0.3438054
678,678,Grove Road,1350000,House,1890,4,4,4,East Molesey,Surrey,KT8 9JS,51.4006317,-0.3524854
679,679,The Granary,375000,Flat / Apartment,961,2,2,2, Barwell Lane,Chessington,KT9 2LZ,51.3551694,-0.3205356
680,680,Milbourne Lane,625000,House,968,3,3,3,Esher,Surrey,KT10 9EA,51.3639376,-0.356688
681,681,Matham Road,2250000,House,4312,5,5,5,East Molesey,Surrey,KT8 0SX,51.3971649,-0.3521642
682,682,Sandown Road,2350000,House,3861,5,5,5,Esher,Surrey,KT10 9TU,51.3701205,-0.3596131
683,683,Manor Drive,900000,House,1437,3,3,3,Esher,Surrey,KT10 0AU,51.37529019999999,-0.335318
684,684,Cornwall Gardens,395000,Flat / Apartment,734,2,2,2,,London,SW7 4BE,51.4965756,-0.1874563
685,685,Spruce House,1000000,Penthouse,1539,2,2,2,4 Woodland Crescent,London,SE16 6YG,51.4991002,-0.0478161
686,686,Emmanuel Road,825000,Flat / Apartment,1517,3,3,3,,London,SW12 0HF,51.4419011,-0.1398611
687,687,Brandreth Road,1600000,House,2340,5,5,5,,London,SW17 8ER,51.4382973,-0.15195
688,688,Ziggurat Building,1250000,Flat / Apartment,1085,2,2,2, Clerkenwell,London,EC1N 8QX,51.5216001,-0.1075986
689,689,Swanscombe Road,1100000,House,1112,3,3,3,Chiswick,London,W4 2HQ,51.4908033,-0.2545248
690,690,Hamilton Road,1200000,House,1517,4,4,4,Chiswick,London,W4 1AL,51.5018453,-0.2562785
691,691,Castelnau,4000000,House,5108,5,5,5,Barnes,London,SW13 9EX,51.47975779999999,-0.2369158
692,692,Chester Close,1250000,House,1952,3,3,3, Barnes,London,SW13 0JE,51.46702200000001,-0.233188
693,693,Matheson Road,430000,Flat / Apartment,477,1,1,1,,London,W14 8SN,51.4934968,-0.2059605
694,694,Batoum Gardens,635000,Flat / Apartment,556,2,2,2,,London,W6 7QB,51.499283,-0.2239445
695,695,Wood Crescent,1000000,New development,960,2,2,2,,London,W12 7GS,51.510468,-0.2267951
696,696,Lime Grove,420000,Flat / Apartment,783,2,2,2,,London,W12 8EE,51.5040571,-0.2274476
697,697,Prince of Wales Mansions,699950,Flat / Apartment,816,2,2,2,Prince of Wales Drive,London,SW11 4BG,51.4771667,-0.1498475
698,698,Primrose Mansions,585000,Flat / Apartment,552,1,1,1,Prince of Wales Drive,London,SW11 4EE,51.4756614,-0.1547613
699,699,Frere Street,800000,House,1148,3,3,3,Battersea,London,SW11 2JA,51.4714282,-0.1663792
700,700,Newlands Close,375000,House,880,3,3,3, Walton-on-Thames,Surrey,KT12 4PW,51.3703673,-0.3864422
701,701,Jessica Road,1450000,House,2131,4,4,4,Wandsworth,London,SW18 2QL,51.4552728,-0.1816794
702,702,Rosehill Road,2000000,House,2518,5,5,5,Wandsworth,London,SW18 2NX,51.455573,-0.1859713
703,703,Carlton Hill,995000,Flat / Apartment,814,2,2,2,St John's Wood,London,NW8 0EN,51.5351942,-0.183658
704,704,Albany,3250000,Flat / Apartment,917,2,2,2,Piccadilly,London,W1J 0AX,51.50978420000001,-0.1391157
705,705,The Green,4495000,House,4063,6,6,6,Richmond,Surrey,TW9 1PX,51.46085009999999,-0.3055188
706,706,Sandy Lane,1350000,Bungalow,2912,4,4,4,Northwood,Middlesex,HA6 3ER,51.6165096,-0.4062561
707,707,Devonshire Street,875000,Flat / Apartment,570,2,2,2,Marylebone,London,W1G 6PY,51.5210167,-0.1510975
708,708,Luxborough Street,750000,Flat / Apartment,633,2,2,2,Marylebone,London,W1U 5BS,51.5217638,-0.1539935
709,709,Pelham Place,7500000,House,2693,4,4,4,South Kensington,London,SW7 2NQ,51.4933085,-0.1716386
710,710,Cottesmore Court,5950000,Penthouse,3002,4,4,4,Stanford Road,London,W8 5QL,51.4984406,-0.1888519
711,711,Hyde Park Gate,3750000,Flat / Apartment,1925,3,3,3,,London,SW7 5DT,51.50048469999999,-0.1820566
712,712,Holland Park Villas,7600000,New development,2238,3,3,3, Kensington,London,W8 7AF,51.50488929999999,-0.2005992
713,713,The Rectangular Tower,565000,New development,739,2,2,2,3 City North Place,London,N4 2DH,51.5647725,-0.1058497
714,714,Cloudesley Place,1435000,House,1341,3,3,3,Islington,London,N1 0JA,51.5355175,-0.1085063
715,715,Packington Street,1295000,New development,1321,2,2,2,,London,N1 8RA,51.5369036,-0.0991336
716,716,Hertford Road,485000,Flat / Apartment,822,2,2,2,De Beauvoir,London,N1 4SN,51.5419782,-0.077261
717,717,River Bank,520000,Flat / Apartment,944,2,2,2,East Molesey,Surrey,KT8 9BH,51.4038085,-0.3449956
718,718,Vicarage Road,2350000,House,2281,4,4,4,,London,SW14 8RU,51.4599848,-0.264179
719,719,Fernside Road,1350000,House,1805,4,4,4,,London,SW12 8LJ,51.4460199,-0.1598125
720,720,Junction House,545000,New development,691,1,1,1, Battersea,London,SW11 2NU,51.4652283,-0.1707307
721,721,Junction House,640000,New development,691,2,2,2, Battersea,London,SW11 2NU,51.4652283,-0.1707307
722,722,Junction House,545000,New development,577,1,1,1, Battersea,London,SW11 2NU,51.4652283,-0.1707307
723,723,Carlton Drive,1850000,Penthouse,2120,3,3,3,Putney,London,SW15 2BS,51.4592633,-0.2125427
724,724,Carlton Drive,1460000,New development,1399,3,3,3,Putney,London,SW15 2BS,51.4592633,-0.2125427
725,725,Rectory Road,2200000,House,2266,5,5,5,Barnes,London,SW13 0DU,51.47245849999999,-0.2400913
726,726,St. Dunstans Road,1325000,House,1782,4,4,4,,London,W6 8RB,51.4894329,-0.2172116
727,727,St. George Wharf,3550000,Flat / Apartment,1862,3,3,3,Vauxhall,London,SW8 2BW,51.4850661,-0.1279949
728,728,South Park Road,1195000,House,1271,3,3,3,Wimbledon,London,SW19 8SZ,51.4205902,-0.194663
729,729,Durrington Park Road,1995000,House,2620,5,5,5,Wimbledon,London,SW20 8NU,51.4154195,-0.22885
730,730,Rydon Mews,1585000,House,1712,4,4,4,Wimbledon,London,SW19 4RP,51.419048,-0.2279618
731,731,Drax Avenue,2695000,House,3924,6,6,6,Wimbledon,London,SW20 0EG,51.4192186,-0.2398784
732,732,Ridgway Place,2990000,House,3067,6,6,6,Wimbledon,London,SW19 4EW,51.4201185,-0.2137676
733,733,Hendham Road,1875000,House,2422,5,5,5,Wandsworth,London,SW17 7DH,51.4397547,-0.1668848
734,734,Eamont Court,650000,Flat / Apartment,623,2,2,2,Shannon Place,London,NW8 7DN,51.53467310000001,-0.1663472
735,735,Kensington Apartments,559000,Flat / Apartment,513,1,1,1, Aldgate,London,E1 6LW,51.5159877,-0.0727638
736,736,Eaton Square,3450000,Flat / Apartment,1441,2,2,2,,London,SW1W 9DH,51.4953797,-0.1511704
737,737,Eaton Place,2000000,Flat / Apartment,1520,2,2,2,Belgravia,London,SW1X 8DE,51.4967621,-0.1538662
738,738,Ormond Avenue,1650000,House,1750,4,4,4,Richmond,Surrey,TW10 6TN,51.4589351,-0.3043086
739,739,Putney Park House,425000,Flat / Apartment,592,1,1,1, Putney,London,SW15 5HJ,51.4599963,-0.2366118
740,740,North Side Wandsworth Common,700000,Flat / Apartment,1040,3,3,3,,London,SW18 2SL,51.4585751,-0.1771721
741,741,Bryanston Square,2200000,Flat / Apartment,1163,3,3,3,Marylebone,London,W1H 2DH,51.517111,-0.1600624
742,742,Shillibeer Place,1750000,House,1224,3,3,3,Marylebone,London,W1H 4DR,51.5200208,-0.163837
743,743,Eaton Place,1450000,Flat / Apartment,765,2,2,2,,London,SW1X 8AL,51.4968129,-0.1525243
744,744,Alwyne Road,3500000,House,2216,4,4,4,Islington,London,N1 2HW,51.5428091,-0.096753
745,745,Liverpool Road,925000,Flat / Apartment,1032,2,2,2,,London,N1 0PY,51.5348633,-0.1069762
746,746,Canonbury Park North,1850000,Flat / Apartment,1623,4,4,4,Islington,London,N1 2JU,51.54684630000001,-0.0939595
747,747,Fitzjohn's Avenue,2295000,Flat / Apartment,2039,3,3,3,Hampstead,London,NW3 5JY,51.5476867,-0.1762372
748,748,Hampstead Hill Gardens,925000,Flat / Apartment,730,1,1,1,Hampstead,London,NW3 2PL,51.5543653,-0.1691181
749,749,Park View Road,2000000,House,3060,5,5,5,,London,W5 2JF,51.522271,-0.295701
750,750,Coval Road,1350000,House,1767,4,4,4,,London,SW14 7RW,51.4630495,-0.273809
751,751,The Madison,1418000,New development,1335,3,3,3, Canary Wharf,London,E14 9YT,51.5097502,-0.017595
752,752,Rusthall Avenue,1300000,House,1685,4,4,4,Chiswick,London,W4 1BL,51.5005408,-0.2604778
753,753,Paultons Square,5350000,House,2710,4,4,4,,London,SW3 5AP,51.4842358,-0.1740036
754,754,Melville Road,2400000,House,2425,5,5,5,Barnes,London,SW13 9RH,51.47614129999999,-0.2428153
755,755,Burnthwaite Road,825000,Flat / Apartment,853,3,3,3, Fulham,London,SW6 5BQ,51.4797214,-0.2019357
756,756,Lena Gardens,635000,Flat / Apartment,634,2,2,2,Hammersmith,London,W6 7PZ,51.4986714,-0.2239395
757,757,Elsham Road,935000,Flat / Apartment,944,2,2,2,,London,W14 8HH,51.5005925,-0.2124679
758,758,Garfield Road,699950,House,883,2,2,2,Wimbledon,London,SW19 8RZ,51.423751,-0.1861958
759,759,Adela Avenue,765000,House,1500,4,4,4,New Malden,Surrey,KT3 6LE,51.3988384,-0.2348961
760,760,Hersham Road,1250000,House,2502,5,5,5,Walton-on-Thames,Surrey,KT12 1LL,51.3774718,-0.4101462
761,761,Boatman's Court,725000,New development,784,2,2,2, Putney,London,SW15 1PP,51.4647006,-0.2164622
762,762,Arundel Gardens,1350000,Flat / Apartment,628,1,1,1,Notting Hill,London,W11 2LB,51.5137325,-0.2066928
763,763,Mandrake Road,1200000,House,1746,5,5,5,,London,SW17 7PX,51.43677719999999,-0.1651047
764,764,Bishops Gate,970000,New development,810,2,2,2,,82-88 Fulham High Street,SW6 3LF,51.4698561,-0.2107322
765,765,Bishops Gate,650000,New development,560,1,1,1,82-88 Fulham High Street,London,SW6 3LF,51.4698561,-0.2107322
766,766,Sloane Court East,750000,Flat / Apartment,599,1,1,1,Chelsea,London,SW3 4TQ,51.4897712,-0.1564966
767,767,Canalside Square,500000,New development,566,1,1,1,,London,N1 7FP,51.5345945,-0.09537989999999999
768,768,Matthias Apartments,825000,Penthouse,1226,2,2,2,158 Northchurch Road,London,N1 3FL,51.5430635,-0.09082939999999999
769,769,Wardo Avenue,975000,Flat / Apartment,1386,3,3,3,,London,SW6 6RA,51.4769789,-0.2119512
770,770,Montpellier Road,350000,Studio,425,0,0,0,Ealing,London,W5 2QS,51.5221273,-0.3056525
771,771,Ember Lane,925000,House,1270,4,4,4,Esher,Surrey,KT10 8ER,51.3845489,-0.3541399
772,772,Philbeach Gardens,1000000,Flat / Apartment,703,2,2,2,,London,SW5 9EY,51.49162949999999,-0.1997099
773,773,Collingham Place,1495000,Flat / Apartment,1122,2,2,2,,London,SW5 0QF,51.4939159,-0.1899245
774,774,Temple Sheen,2350000,House,2667,5,5,5,,London,SW14 7RP,51.4607716,-0.2736214
775,775,Stapleton Road,675000,Flat / Apartment,924,2,2,2,,London,SW17 8AY,51.43414060000001,-0.1569663
776,776,Cecil Mansions,765000,Flat / Apartment,1025,4,4,4,Marius Road,London,SW17 7QN,51.4401422,-0.1588976
777,777,Yukon Road,799950,Flat / Apartment,1320,4,4,4,,London,SW12 9PY,51.44950979999999,-0.145021
778,778,28 Narrow Street,2950000,Penthouse,3451,5,5,5,Limehouse,London,E14 8DQ,51.50996809999999,-0.0410823
779,779,Myddelton Square,999950,Flat / Apartment,792,2,2,2,Finsbury,London,EC1R 1YB,51.5306834,-0.1076399
780,780,Wolseley Gardens,1200000,House,1710,4,4,4, Chiswick,London,W4 3LP,51.48761649999999,-0.2737461
781,781,Speldhurst Road,1250000,House,1395,4,4,4,Chiswick,London,W4 1BU,51.5011337,-0.2604408
782,782,Eastbury Grove,1495000,House,1889,4,4,4,Chiswick,London,W4 2JY,51.488447,-0.252699
783,783,Meredyth Road,1950000,House,2150,4,4,4,Barnes,London,SW13 0DS,51.4735497,-0.2408989
784,784,Television Centre,785000,New development,590,1,1,1,101 Wood Lane,London,W12 7FT,51.5103516,-0.2262376
785,785,Montevetro,2250000,Flat / Apartment,1641,3,3,3, Battersea,London,SW11 3YL,51.4772009,-0.17499
786,786,Howick Place,6450000,Flat / Apartment,3578,2,2,2, Westminster,London,SW1P 1QN,51.4946766,-0.1391263
787,787,Ridgway,749950,Flat / Apartment,1059,2,2,2, Wimbledon,London,SW19 4QS,51.4208483,-0.2215492
788,788,Earlsfield Road,1675000,House,2565,4,4,4,,London,SW18 3DN,51.450978,-0.1813462
789,789,Twilley Street,950000,House,1360,4,4,4,,London,SW18 4NU,51.4501017,-0.1915565
790,790,The Glass Building,1975000,Penthouse,2458,2,2,2,226 Arlington Road,London,NW1 7HY,51.5403098,-0.1450662
791,791,Radnor Walk,3550000,House,1986,5,5,5,Chelsea,London,SW3 4BP,51.488089,-0.165063
792,792,Du Cane Court,350000,Flat / Apartment,539,1,1,1,Balham High Road,London,SW17 7JA,51.4411804,-0.1557189
793,793,Basilica Mews,2375000,New development,2540,5,5,5,,Thurleigh Road,SW12 8UF,51.45243199999999,-0.1552512
794,794,Basilica Mews,2325000,New development,2466,5,5,5,,Thurleigh Road,SW12 8UF,51.45243199999999,-0.1552512
795,795,Pearson Square,4600000,New development,1961,3,3,3,Fitzrovia,London,W1T 3BF,51.5189799,-0.1383083
796,796,The Chase,700000,House,1174,4,4,4,Loughton,Essex,IG10 4RE,51.6350249,0.0440122
797,797,Piercing Hill,1350000,House,2312,4,4,4, Epping,Essex,CM16 7JW,51.6774163,0.0915851
798,798,Bramah House,1325000,New development,824,2,2,2,9 Gatliff Road,London,SW1W 8DP,51.4871997,-0.1485341
799,799,Tedworth Square,1850000,Flat / Apartment,981,2,2,2,,London,SW3 4DU,51.4875507,-0.1622758
800,800,Upper Park Road,5250000,House,3782,8,8,8,Belsize Park,London,NW3 2UP,51.5492899,-0.1608408
801,801,Ascott Avenue,1000000,House,1549,4,4,4,Ealing,London,W5 5QB,51.5057844,-0.2991841
802,802,Carleton Close,1275000,House,2344,5,5,5,Esher,Surrey,KT10 8EE,51.3832218,-0.3556964
803,803,Redcliffe Square,2000000,Flat / Apartment,1072,2,2,2,,London,SW10 9JY,51.48862219999999,-0.188953
804,804,Palmers Road,1200000,House,1760,4,4,4,East Sheen,London,SW14 7NB,51.4671981,-0.2691318
805,805,Gaskarth Road,1175000,House,1668,4,4,4,,London,SW12 9NL,51.4511791,-0.1459464
806,806,Kirkstall Road,1300000,House,2177,4,4,4,,London,SW2 4HD,51.44296139999999,-0.1273851
807,807,Woodfield Lane,3500000,House,4213,7,7,7,,London,SW16 1LF,51.43529239999999,-0.1359571
808,808,Mayford Road,800000,Flat / Apartment,1035,2,2,2,,London,SW12 8SN,51.4473908,-0.1589227
809,809,Merton Avenue,1200000,House,1615,4,4,4,Chiswick,London,W4 1TA,51.4942036,-0.2491655
810,810,The Orchard,3295000,House,3230,5,5,5, Chiswick,London,W4 1JZ,51.4961727,-0.2582094
811,811,Ravensmede Way,425000,Flat / Apartment,548,2,2,2,,London,W4 1TF,51.494518,-0.2473382
812,812,Carlton House,1215000,New development,1091,3,3,3, Putney,London,SW15 2BS,51.4592633,-0.2125427
813,813,Slaidburn Street,1850000,House,1341,3,3,3,,London,SW10 0JW,51.4823853,-0.1816532
814,814,Rocks Lane,2275000,House,2652,5,5,5,Barnes,London,SW13 0DB,51.4743005,-0.2387964
815,815,Hampshire Court,400000,Flat / Apartment,601,2,2,2, Barnes,London,SW13 0ES,51.47239680000001,-0.2491939
816,816,Valiant House,800000,Flat / Apartment,1143,3,3,3, Battersea,London,SW11 3LX,51.4755967,-0.175918
817,817,Queenstown Road,700000,Flat / Apartment,940,2,2,2,Battersea,London,SW8 3QD,51.4727604,-0.1487152
818,818,Aslett Street,750000,Duplex,1522,4,4,4,,London,SW18 2BQ,51.4513356,-0.1870172
819,819,City Road,500000,Flat / Apartment,561,1,1,1,Clerkenwell,London,EC1V 1AG,51.529939,-0.09554549999999999
820,820,Cadogan Lane,3975000,House,1726,3,3,3,Knightsbridge,London,SW1X 9DP,51.4970039,-0.1566658
821,821,Strawberry Vale,1999995,House,2537,5,5,5,,Twickenham,TW1 4RX,51.4377644,-0.3310639
822,822,Seaton Close,1099000,House,1554,4,4,4, Putney,London,SW15 3TJ,51.4468754,-0.2323968
823,823,Roseland House,539950,Flat / Apartment,627,2,2,2,Weimar Street,London,SW15 1SY,51.46508679999999,-0.2158425
824,824,Woodhouse Eaves,1050000,House,1677,4,4,4,Northwood,Middlesex,HA6 3NF,51.6166297,-0.4098053
825,825,Gayville Road,850000,Flat / Apartment,901,2,2,2,,London,SW11 6JW,51.4526826,-0.1614734
826,826,Edgeley Road,599950,Flat / Apartment,699,2,2,2,,London,SW4 6HB,51.4675788,-0.1361107
827,827,Marmion Road,695000,Flat / Apartment,987,2,2,2,,London,SW11 5PA,51.4633322,-0.1536026
828,828,Carlton Mansions,950000,Flat / Apartment,922,3,3,3, Maida Vale,London,W9 1NS,51.531087,-0.1878874
829,829,Liverpool Road,1999995,House,2073,4,4,4,,London,N7 8PR,51.5459593,-0.1085923
830,830,Matilda Street,365000,Flat / Apartment,520,1,1,1,,London,N1 1BG,51.5390647,-0.1149061
831,831,Kidderpore Avenue,1200000,Flat / Apartment,1218,3,3,3,Hampstead,London,NW3 7SF,51.5571346,-0.1934592
832,832,Palace Road,2950000,House,4389,6,6,6,East Molesey,Surrey,KT8 9DW,51.40406369999999,-0.3516145
833,833,Sketch Apartments,380000,Flat / Apartment,550,1,1,1,42 White Horse Lane,London,E1 3FY,51.5198998,-0.0434667
834,834,Alleyn Park,1875000,House,3435,5,5,5,,London,SE21 8AA,51.4393792,-0.0887681
835,835,The Chase,5100000,House,4459,7,7,7,,London,SW4 0NH,51.4642122,-0.1461096
836,836,Andersens Wharf,490000,Flat / Apartment,771,2,2,2, Canary Wharf,London,E14 7DX,51.5136205,-0.0293522
837,837,Lonsdale Road,2750000,House,2612,6,6,6,Barnes,London,SW13 9ED,51.4857801,-0.2343358
838,838,Townshend Court,450000,Flat / Apartment,460,1,1,1, St John's Wood,London,NW8 7DP,51.5349209,-0.1660921
839,839,Weldin Mews,825000,House,1224,3,3,3,Putney,London,SW18 1FT,51.4563792,-0.2003626
840,840,Hotham Road,1695000,House,2205,4,4,4,Putney,London,SW15 1QJ,51.4654755,-0.2236737
841,841,Carlton Drive,425000,Flat / Apartment,548,1,1,1,Putney,London,SW15 2BD,51.4574846,-0.2132599
842,842,Gloucester Avenue,1250000,Flat / Apartment,896,2,2,2,Primrose Hill,London,NW1 8JD,51.5407934,-0.1517811
843,843,Northumberland Place,3750000,House,2239,4,4,4,,London,W2 5BS,51.5164829,-0.1960487
844,844,The Claves,785000,New development,1263,2,2,2, Mill Hill,London,NW7 1NY,51.61473059999999,-0.230102
845,845,City Road,675000,Flat / Apartment,891,2,2,2,,London,EC1V 1LA,51.53038350000001,-0.0991026
846,846,Forest Road,465000,Flat / Apartment,518,1,1,1,Hackney,London,E8 3BL,51.54384899999999,-0.0701731
847,847,Howitt Road,1350000,Flat / Apartment,1023,2,2,2,Belsize Park,London,NW3 4LJ,51.54859039999999,-0.1661336
848,848,Ashington Road,2500000,House,2458,5,5,5,Fulham,London,SW6 3QJ,51.47151179999999,-0.2037414
849,849,Winterdown Road,675000,House,915,2,2,2,Esher,Surrey,KT10 8LP,51.3625761,-0.3848629
850,850,Milton Road,945000,House,1112,3,3,3,East Sheen,London,SW14 8JP,51.4660153,-0.2657644
851,851,Dundee Wharf,725000,Flat / Apartment,861,2,2,2, Limehouse,London,E14 8AY,51.5079996,-0.0309351
852,852,Wharfside Point South,325000,Flat / Apartment,469,1,1,1, Canary Wharf,London,E14 9EX,51.5082167,-0.0091798
853,853,Myddelton Square,800000,Flat / Apartment,742,2,2,2,Finsbury,London,EC1R 1YE,51.5295988,-0.1078579
854,854,Cloth Court,595000,New development,476,1,1,1,Farringdon,London,EC1A 7LS,51.5191148,-0.100163
855,855,Edensor Gardens,425000,Flat / Apartment,740,2,2,2,Grove Park,London,W4 2QY,51.4821994,-0.2540611
856,856,Lillian Road,1250000,House,1380,3,3,3,Barnes,London,SW13 9JF,51.4872054,-0.2364269
857,857,Glebe Road,2100000,House,1959,5,5,5,Barnes,London,SW13 0DR,51.4736094,-0.2424805
858,858,Knowsley Road,875000,House,869,2,2,2,Battersea,London,SW11 5BL,51.4699731,-0.1624635
859,859,Poyntz Road,1095000,House,1238,3,3,3,Battersea,London,SW11 5BH,51.4693593,-0.1628913
860,860,Battersea Church Road,1495000,Penthouse,1680,4,4,4,Battersea,London,SW11 3NA,51.47655109999999,-0.1754191
861,861,Hove Court,895000,Flat / Apartment,1221,3,3,3, Wimbledon,London,SW19 4AG,51.4228993,-0.2127243
862,862,Birdhurst Road,650000,Flat / Apartment,1087,3,3,3,,London,SW18 1AR,51.4594351,-0.183918
863,863,Eaton Place,3500000,Flat / Apartment,1548,3,3,3,Belgravia,London,SW1X 8AD,51.4979733,-0.1508349
864,864,Chevalier House,4750000,Flat / Apartment,1559,2,2,2, Knightsbridge,London,SW3 1BW,51.50063189999999,-0.1626428
865,865,Macaulay Court,550000,Flat / Apartment,690,2,2,2,Macaulay Road,London,SW4 0QU,51.4657063,-0.1461931
866,866,The Green,525000,Flat / Apartment,1299,3,3,3, Buckhurst Hill,Essex,IG9 5NQ,51.6274485,0.0349591
867,867,Chelsea Waterfront,4035000,New development,2174,4,4,4, Chelsea,London,SW10 0QH,51.4792214,-0.1794315
868,868,Melbourne House,1150000,Flat / Apartment,933,2,2,2,50 Kensington Place,London,W8 7PW,51.5068739,-0.198662
869,869,Peel Street,2350000,House,1327,2,2,2,,London,W8 7PA,51.50689879999999,-0.1961825
870,870,Parkhill,2100000,Flat / Apartment,2810,3,3,3, Esher,Surrey,KT10 9NP,51.36839370000001,-0.3615281
871,871,Greenways,1000000,House,2590,4,4,4,Esher,Surrey,KT10 0QD,51.3730272,-0.3418799
872,872,Tower Bridge Road,780000,Penthouse,1010,2,2,2,,London,SE1 2AW,51.5015346,-0.0781289
873,873,Becmead Avenue,1595000,House,3260,6,6,6,,London,SW16 1UQ,51.4317436,-0.1322172
874,874,Pavilion Square,1000000,House,2456,3,3,3,,London,SW17 7DN,51.4368759,-0.166813
875,875,Blandfield Road,850000,House,953,2,2,2,,London,SW12 8BQ,51.4500959,-0.1542371
876,876,Beechmore Road,625000,Flat / Apartment,967,1,1,1,,London,SW11 4ET,51.4744763,-0.1600362
877,877,Trott Street,1300000,House,1457,4,4,4,Battersea,London,SW11 3DS,51.47339969999999,-0.1722761
878,878,Maunsel Street,2950000,House,2349,5,5,5,Westminster,London,SW1P 2QN,51.49451209999999,-0.1332984
879,879,South Park Road,995000,House,1184,3,3,3,Wimbledon,London,SW19 8SZ,51.4205902,-0.194663
880,880,Wycombe Place,1150000,House,1705,3,3,3,,London,SW18 2LT,51.453905,-0.1862677
881,881,Battersea Reach,700000,Flat / Apartment,814,2,2,2, Battersea,London,SW18 1TA,51.4650567,-0.183407
882,882,Cicada Road,575000,Flat / Apartment,619,2,2,2,,London,SW18 2NW,51.4561656,-0.1818454
883,883,Southborough Road,1675000,House,1749,4,4,4,South Hackney,London,E9 7EE,51.5389334,-0.044323
884,884,Trevor Square,4500000,Flat / Apartment,1607,2,2,2,,London,SW7 1EA,51.4999076,-0.1652078
885,885,Eaton Square,820000,Flat / Apartment,992,1,1,1,,London,SW1W 9BD,51.4948698,-0.1519113
886,886,Northumberland Place,2950000,House,2400,3,3,3,Richmond,Surrey,TW10 6TS,51.4573123,-0.3052611
887,887,Felsham Road,635000,Flat / Apartment,774,2,2,2,Putney,London,SW15 1BB,51.4668133,-0.2235354
888,888,Langside Avenue,1995000,House,3256,5,5,5,Putney,London,SW15 5QT,51.4633653,-0.2423844
889,889,Liverpool Road,1895000,House,1868,3,3,3,Islington,London,N1 0RE,51.5381399,-0.1066239
890,890,Victoria Avenue,1495000,House,2566,5,5,5,Surbiton,Surrey,KT6 5DL,51.39052539999999,-0.3102884
891,891,Arnison Road,2250000,House,3364,5,5,5,East Molesey,Surrey,KT8 9JJ,51.4008996,-0.3504343
892,892,Upper Richmond Road West,1250000,House,2032,6,6,6,Richmond,Surrey,TW10 5DY,51.4642723,-0.2793056
893,893,Duckman Tower,825000,Flat / Apartment,1026,3,3,3, Canary Wharf,London,E14 9BL,51.4984653,-0.0196184
894,894,Clerkenwell Road,875000,Flat / Apartment,767,2,2,2,Clerkenwell,London,EC1M 5PY,51.5225922,-0.09887939999999999
895,895,Meredyth Road,2175000,House,2108,5,5,5,Barnes,London,SW13 0DS,51.4735497,-0.2408989
896,896,Rectory Road,2250000,House,2332,5,5,5,Barnes,London,SW13 0DT,51.4727608,-0.2398637
897,897,Alexandra Avenue,975000,Flat / Apartment,1100,2,2,2,Battersea,London,SW11 4DZ,51.4749306,-0.1557555
898,898,Edna Street,1735000,House,2144,4,4,4,Battersea,London,SW11 3DP,51.4738031,-0.17046
899,899,Kingholme House,1375000,House,1335,3,3,3, Wimbledon,London,SW19 4RD,51.41884229999999,-0.2274376
900,900,Tonsley Road,1295000,House,1811,4,4,4,,London,SW18 1BG,51.4581402,-0.1885758
901,901,Addison House,875000,Flat / Apartment,693,2,2,2,Grove End Road,London,NW8 9EL,51.5304353,-0.1754276
902,902,Jade Terrace,1950000,House,1873,5,5,5, South Hampstead,London,NW6 4EQ,51.5442376,-0.1793894
903,903,Edge Apartments,995000,Flat / Apartment,1243,2,2,2, Twickenham,Middlesex,TW1 4RX,51.4377644,-0.3310639
904,904,Church Road,3450000,House,3825,5,5,5, Richmond,Surrey,TW10 5HG,51.4307634,-0.2994537
905,905,Elsworthy Terrace,1295000,Flat / Apartment,1366,2,2,2,,London,NW3 3DR,51.5406717,-0.1652263
906,906,Stanmore Hill,2500000,House,4222,6,6,6,Stanmore,Middlesex,HA7 3BY,51.6236178,-0.3189209
907,907,Bickenhall Mansions,2150000,Flat / Apartment,1672,3,3,3, Marylebone,London,W1U 6BT,51.5214819,-0.1583726
908,908,Goodwood Court,800000,Flat / Apartment,548,2,2,2, Marylebone,London,W1W 5DZ,51.5220942,-0.1447257
909,909,Portland Chambers,1750000,Flat / Apartment,883,2,2,2, Fitzrovia,London,W1W 6RP,51.51982959999999,-0.141416
910,910,Monkhams Avenue,1250000,House,1901,4,4,4,Woodford Green,Essex,IG8 0HB,51.608724,0.0324608
911,911,Bowden House,1178000,New development,847,2,2,2, Battersea,London,SW11 4FA,51.4782357,-0.1463623
912,912,One Bishopsgate Plaza,1285000,New development,652,1,1,1,,City Of London,EC2M 4JY,51.5182649,-0.0814556
913,913,Aubrey Road,7950000,House,3443,5,5,5,,London,W8 7JJ,51.5067521,-0.2030331
914,914,Wynnstay Gardens,2150000,Flat / Apartment,1806,4,4,4,,London,W8 6UP,51.4993578,-0.1958465
915,915,Battledean Road,1895000,House,2132,5,5,5,Highbury,London,N5 1UZ,51.5516273,-0.1031933
916,916,Galleria,1200000,Flat / Apartment,1355,2,2,2,29 Laycock Street,London,N1 1UR,51.5445445,-0.1056224
917,917,Independent Place,725000,House,804,1,1,1,Hackney,London,E8 2HE,51.5516504,-0.07101149999999999
918,918,Wildwood Grove,1100000,House,1069,2,2,2,Hampstead,London,NW3 7HU,51.56831560000001,-0.1826123
919,919,Gifford Gardens,1000000,New development,2258,4,4,4,,London,W7 3AS,51.5227288,-0.3433683
920,920,Ternary Place,600000,New development,870,1,1,1, Ealing,London,W5 3HJ,51.5160765,-0.2908447
921,921,Gloucester Road,695000,Flat / Apartment,537,1,1,1,,London,SW7 4AU,51.4963837,-0.1837758
922,922,Gosberton Road,1450000,House,1921,4,4,4,,London,SW12 8LF,51.4461057,-0.1572618
923,923,Foxbourne Road,699950,Flat / Apartment,902,2,2,2,,London,SW17 8EN,51.4392435,-0.1537824
924,924,Ravenslea Road,1295000,House,1674,4,4,4,Balham,London,SW12 8RT,51.4445079,-0.1585925
925,925,Cranley Gardens,2600000,Flat / Apartment,1500,3,3,3,,London,SW7 3DD,51.4900791,-0.1796617
926,926,Crooked Billet,600000,House,570,2,2,2,Wimbledon,London,SW19 4RQ,51.4212915,-0.2282489
927,927,Alverstone Avenue,895000,House,900,3,3,3,Wimbledon,London,SW19 8BD,51.4386375,-0.2004267
928,928,Leopold Road,1160000,Penthouse,1112,2,2,2,Wimbledon,London,SW19 7JQ,51.43002,-0.2043761
929,929,Bloomsbury Place,500000,Flat / Apartment,622,2,2,2,,London,SW18 2JB,51.4578037,-0.185998
930,930,Chatham Place,625000,Flat / Apartment,797,2,2,2,,London,E9 6FJ,51.5458445,-0.051094
931,931,Mortimer Court,450000,Flat / Apartment,377,1,1,1,Abbey Road,London,NW8 9AD,51.532521,-0.1782855
932,932,Lebanon Park,2750000,House,2999,7,7,7,Twickenham,Middlesex,TW1 3DG,51.4484033,-0.321062
933,933,St. Quintin Avenue,899950,Flat / Apartment,1115,3,3,3,,London,W10 6PB,51.5198952,-0.2246126
934,934,Pembridge Square,1250000,Flat / Apartment,649,1,1,1,,London,W2 4EH,51.5114815,-0.1942
935,935,Holland Park Avenue,1650000,Flat / Apartment,1055,2,2,2,,London,W11 4UE,51.5065016,-0.2089943
936,936,Stanley Crescent,3450000,Penthouse,1575,2,2,2,Notting Hill,London,W11 2NA,51.51248709999999,-0.2052285
937,937,Stanley Crescent,2975000,Flat / Apartment,1657,3,3,3,,London,W11 2NA,51.51248709999999,-0.2052285
938,938,Wimpole Mews,2500000,House,1266,3,3,3,Marylebone,London,W1G 8PE,51.5197627,-0.1479916
939,939,Cadogan Gardens,2150000,Flat / Apartment,1064,2,2,2,Sloane Square,London,SW3 2RE,51.49394890000001,-0.160261
940,940,Park Mansions,1995000,Flat / Apartment,1053,2,2,2,Knightsbridge,London,SW1X 7QS,51.5015698,-0.1616685
941,941,Pont Street,1700000,Flat / Apartment,1045,2,2,2,,London,SW1X 0AD,51.49713360000001,-0.1620632
942,942,Empire House,2600000,Flat / Apartment,1722,3,3,3,Thurloe Place,London,SW7 2RU,51.4961563,-0.1697238
943,943,Cadogan Gardens,1675000,Flat / Apartment,905,2,2,2,,London,SW3 2TH,51.4923393,-0.1602682
944,944,Chester Street,1495000,Flat / Apartment,776,1,1,1,,London,SW1X 7BB,51.4994289,-0.1501852
945,945,Rutland Gate,2895000,Flat / Apartment,1398,2,2,2,,London,SW7 1PJ,51.5001016,-0.1689893
946,946,Rutland Gate,1450000,Flat / Apartment,675,1,1,1,,London,SW7 1BB,51.50105,-0.1686775
947,947,Hirst Court,795000,Flat / Apartment,691,1,1,1,20 Gatliff Road,London,SW1W 8QD,51.4863782,-0.1494748
948,948,Holland Park Avenue,1895000,Flat / Apartment,1522,2,2,2,,London,W11 3QU,51.50846250000001,-0.2019714
949,949,Imperial Court,1850000,Flat / Apartment,1480,3,3,3,4-10 Lexham Gardens,London,W8 5JH,51.49511589999999,-0.1896032
950,950,Campden Hill Gate,3500000,Flat / Apartment,1804,4,4,4,Duchess Of Bedford's Walk,London,W8 7QJ,51.5029646,-0.1994071
951,951,Vicarage Court,450000,Studio,410,0,0,0,Vicarage Gate,London,W8 4HF,51.5045504,-0.1920101
952,952,Cornwall Mansions,2895000,Flat / Apartment,1850,3,3,3,33 Kensington Court,London,W8 5BG,51.5008932,-0.1886969
953,953,Campden House,1250000,Flat / Apartment,1317,3,3,3,29 Sheffield Terrace,London,W8 7ND,51.5052618,-0.1961607
954,954,Melbury Court,4250000,Flat / Apartment,2713,6,6,6,Kensington High Street,London,W8 6NH,51.4989476,-0.2001706
955,955,Lexham Gardens,1300000,Flat / Apartment,1162,2,2,2,,London,W8 5JR,51.4957667,-0.1903986
956,956,Thackeray House,1175000,Flat / Apartment,793,2,2,2,Thackeray Street,London,W8 5HA,51.500259,-0.1883907
957,957,Kensington Church Street,4450000,Penthouse,1894,3,3,3,,London,W8 7LP,51.50738459999999,-0.1950249
958,958,Winchester Court,1550000,Flat / Apartment,923,2,2,2,Vicarage Gate,London,W8 4AF,51.5045925,-0.1929883
959,959,Hornton Street,1300000,Flat / Apartment,914,2,2,2,,London,W8 7NP,51.5030298,-0.1954564
960,960,Vincent Close,1550000,House,2602,4,4,4,Esher,Surrey,KT10 8AW,51.373914,-0.3698228
961,961,Summer Road,1325000,House,2410,5,5,5,Thames Ditton,Surrey,KT7 0QP,51.3945093,-0.3354268
962,962,Sheen Gate Gardens,1450000,House,1899,4,4,4,East Sheen,London,SW14 7PD,51.4633531,-0.2693923
963,963,Ranmere Street,1175000,House,1503,4,4,4,,London,SW12 9QQ,51.4447987,-0.145658
964,964,Carlton Drive,795000,New development,823,2,2,2,,London,SW15 2BS,51.4592633,-0.2125427
965,965,Drayton Gardens,4750000,House,3104,6,6,6,Chelsea,London,SW10 9RY,51.4900719,-0.1820965
966,966,Kings Court Mansions,799950,Flat / Apartment,890,2,2,2,721 Fulham Road,London,SW6 5PB,51.47696550000001,-0.2022456
967,967,Lower Mall,650000,Flat / Apartment,743,2,2,2,,London,W6 9DJ,51.48993309999999,-0.2318417
968,968,Burns Road,850000,House,1167,3,3,3,Battersea,London,SW11 5GX,51.4714951,-0.1631799
969,969,Candlemakers Apartments,560000,Flat / Apartment,779,1,1,1, Battersea,London,SW11 3RS,51.4674378,-0.1792235
970,970,Tyneham Road,910000,House,960,3,3,3,Battersea,London,SW11 5XP,51.4677415,-0.1537847
971,971,Emerson Court,399950,Flat / Apartment,621,1,1,1, Wimbledon,London,SW19 7PQ,51.4237917,-0.2134518
972,972,Wimbledon Hill Road,465000,Flat / Apartment,592,1,1,1,Wimbledon,London,SW19 7QU,51.4238783,-0.2155917
973,973,Swanage Road,1535000,House,2352,5,5,5,,London,SW18 2DY,51.4522785,-0.1834391
974,974,Lammas Road,725000,House,1344,5,5,5,Richmond,Surrey,TW10 7YD,51.4304594,-0.314513
975,975,Kenilworth Court,1295000,Flat / Apartment,1702,4,4,4, Putney,London,SW15 1HA,51.46614839999999,-0.2164634
976,976,Oakhill Road,825000,Flat / Apartment,947,2,2,2,Putney,London,SW15 2FJ,51.4595383,-0.2044106
977,977,Gloucester Avenue,1195000,Flat / Apartment,879,2,2,2,Primrose Hill,London,NW1 8JA,51.5422361,-0.1548809
978,978,Regents Park Road,1250000,Flat / Apartment,1061,2,2,2,Regent's Park,London,NW1 7SY,51.5380603,-0.1535357
979,979,Harley Road,1350000,Flat / Apartment,1225,2,2,2,,London,NW3 3BN,51.5410677,-0.1704307
980,980,St Marys Avenue,1225000,House,2289,5,5,5,Northwood,Middlesex,HA6 3AY,51.6182055,-0.4239785
981,981,Saxon Court,585000,Flat / Apartment,1032,2,2,2, Northwood,Middlesex,HA6 3FG,51.6119461,-0.4152408
982,982,Bromells Road,550000,New development,542,1,1,1,,London,SW4 0BG,51.4624868,-0.1388086
983,983,Paramount Court,985000,Flat / Apartment,677,2,2,2, Bloomsbury,London,WC1E 6JP,51.5233376,-0.1363718
984,984,Grosvenor Avenue,530000,Flat / Apartment,482,1,1,1,Highbury,London,N5 2NR,51.5495494,-0.0893175
985,985,Alwyne Road,4200000,House,2968,3,3,3,Islington,London,N1 2HN,51.5440495,-0.0950571
986,986,Lawford Road,1375000,House,1340,3,3,3,Islington,London,N1 5BJ,51.5403178,-0.0823927
987,987,Amhurst Road,575000,Flat / Apartment,707,2,2,2,Hackney,London,E8 2AG,51.5501253,-0.0625081
988,988,Highfields Grove,2950000,House,2740,4,4,4,Highgate,London,N6 6HN,51.5694387,-0.1548907
989,989,Basuto Road,1950000,House,1795,3,3,3, Parsons Green,Fulham,SW6 4BL,51.475948,-0.1974759
990,990,Napier Avenue,3250000,House,3156,5,5,5,Fulham,London,SW6 3PT,51.46905839999999,-0.2056088
991,991,Ember Lane,1250000,House,1980,4,4,4,Esher,Surrey,KT10 8EQ,51.3872742,-0.3522601
992,992,Sandown House,975000,Penthouse,1634,3,3,3, Esher,Surrey,KT10 9SL,51.3708959,-0.3623296
993,993,Pine Walk,1100000,House,1716,4,4,4,Surbiton,Surrey,KT5 8NJ,51.3936402,-0.2857518
994,994,Hill House Road,900000,House,1989,3,3,3,,London,SW16 2AQ,51.4244843,-0.1208332
995,995,Wards Wharf Approach,300000,Flat / Apartment,517,1,1,1,Newham,London,E16 2ER,51.5010031,0.0379957
996,996,Junction House,510000,New development,577,1,1,1, Battersea,London,SW11 2NU,51.4652283,-0.1707307
997,997,Foskett Road,350000,Flat / Apartment,302,1,1,1,Fulham,London,SW6 3LY,51.4709032,-0.2051044
998,998,Sinclair Gardens,875000,Flat / Apartment,981,2,2,2,Brook Green,London,W14 0AU,51.5021922,-0.2165406
999,999,Kingston Vale,1095000,House,2642,3,3,3,Kingston,London,SW15 3RN,51.4336935,-0.2619671
1000,1000,Eversley Park,3350000,House,3256,5,5,5,Wimbledon,London,SW19 4UU,51.4246886,-0.2364604
1001,1001,Ridgmount Road,1350000,House,1723,4,4,4,,London,SW18 2DA,51.456124,-0.1884541
